"Name","ID","Website","Email Address","Non Primary E-mails","Office Phone","Alternate Phone","Fax","Billing Street","Billing City","Billing State","Billing Postal Code","Billing Country","Shipping Street","Shipping City","Shipping State","Shipping Postal Code","Shipping Country","Description","Type","Industry","Annual Revenue","Employees","SIC Code","Ticker Symbol","Parent Account ID","Ownership","Campaign ID","Rating","Assigned to","Assigned User","Date Created","Date Modified","Modified By","Created By","Deleted","Geocode Status","Longitude","Address","Latitude"
"123 Warehousing","001i0000008rFxEAAU","","","","","","","3270 N Hwy 87, Pine, AZ 85544","Pine","Arizona","","","3270 N Hwy 87, Pine, AZ 85544","Pine","Arizona","","","","Other","Recreation","","","","","","","","","","","2011-01-08 00:00:00","","","",0,"",-111.453115,"",34.382835
"A Dui Cras Consulting","001i0000008rFjLAAU","","","","","","","570 Main St, Bangor, ME 04401-6821","Bangor","Maine","","","570 Main St, Bangor, ME 04401-6821","Bangor","Maine","","","","Other","Insurance","","","","","","","","","","","2011-07-31 00:00:00","","","",0,"",-68.777792,"",44.78701
"A Dui Inc.","001i0000008rFtpAAE","","","","","","","40233 Enterprise Dr, Oakhurst, CA 93644-8839","Oakhurst","California","","","40233 Enterprise Dr, Oakhurst, CA 93644-8839","Oakhurst","California","","","","Other","Telecommunications","","","","","","","","","","","2014-09-27 00:00:00","","","",0,"",-119.660271,"",37.333159
"A Feugiat Corp.","001i0000008rFEpAAM","","","","","","","117 Chestnut St, Philadelphia, PA 19106-3074","Philadelphia","Pennsylvania","","","117 Chestnut St, Philadelphia, PA 19106-3074","Philadelphia","Pennsylvania","","","","Other","Shipping","","","","","","","","","","","2012-03-27 00:00:00","","","",0,"",-75.143556,"",39.948474
"A Magna Corporation","001i0000008rFXlAAM","","","","","","","25327 Jeans Rd, Veneta, OR 97487-9644","Veneta","Oregon","","","25327 Jeans Rd, Veneta, OR 97487-9644","Veneta","Oregon","","","","Other","Technology","","","","","","","","","","","2015-03-28 00:00:00","","","",0,"",-123.337949,"",44.055391
"A Magna Lorem Foundation","001i0000008rFkOAAU","","","","","","","1120 W Lincolnshire Blvd, Springfield, IL 62711-6445","Springfield","Illinois","","","1120 W Lincolnshire Blvd, Springfield, IL 62711-6445","Springfield","Illinois","","","","Other","Healthcare","","","","","","","","","","","2013-10-29 00:00:00","","","",0,"",-89.67279,"",39.748705
"A Magna Lorem Inc.","001i0000008rERBAA2","","","","","","","5813 Ponce de Leon Blvd, Miami, FL 33146-2422","Miami","Florida","","","5813 Ponce de Leon Blvd, Miami, FL 33146-2422","Miami","Florida","","","","Other","Telecommunications","","","","","","","","","","","2012-09-16 00:00:00","","","",0,"",-80.28308,"",25.710652
"A Malesuada Associates","001i0000008rEs4AAE","","","","","","","610 Merchant St, Emporia, KS 66801-2859","Emporia","Kansas","","","610 Merchant St, Emporia, KS 66801-2859","Emporia","Kansas","","","","Other","Manufacturing","","","","","","","","","","","2013-12-02 00:00:00","","","",0,"",-96.181176,"",38.405473
"A Neque LLC","001i0000008rF4RAAU","","","","","","","777 E Olive Ave, Fresno, CA 93728-3350","Fresno","California","","","777 E Olive Ave, Fresno, CA 93728-3350","Fresno","California","","","","Other","Manufacturing","","","","","","","","","","","2014-09-28 00:00:00","","","",0,"",-119.80205,"",36.75791
"A Odio LLP","001i0000008rFYQAA2","","","","","","","9800 Montgomery Blvd NE, Albuquerque, NM 87111-3576","Albuquerque","New Mexico","","","9800 Montgomery Blvd NE, Albuquerque, NM 87111-3576","Albuquerque","New Mexico","","","","Other","Telecommunications","","","","","","","","","","","2014-05-19 00:00:00","","","",0,"",-106.531573,"",35.12965
"A PC","001i0000008rEVmAAM","","","","","","","5810 Bond St # E-2, Cumming, GA 30040-0301","Cumming","Georgia","","","5810 Bond St # E-2, Cumming, GA 30040-0301","Cumming","Georgia","","","","Other","Manufacturing","","","","","","","","","","","2012-07-07 00:00:00","","","",0,"",-84.219383,"",34.181723
"A Sollicitudin Corp.","001i0000008rEjeAAE","","","","","","","13040 Highway 9, Boulder Creek, CA 95006-9154","Boulder Creek","California","","","13040 Highway 9, Boulder Creek, CA 95006-9154","Boulder Creek","California","","","","Other","Manufacturing","","","","","","","","","","","2014-11-04 00:00:00","","","",0,"",-122.121336,"",37.12326
"Ac Eleifend Foundation","001i0000008rERaAAM","","","","","","","210 Coddington Hwy, Middletown, RI 02842-4884","Middletown","Rhode Island","","","210 Coddington Hwy, Middletown, RI 02842-4884","Middletown","Rhode Island","","","","Other","Insurance","","","","","","","","","","","2011-07-08 00:00:00","","","",0,"",-71.305642,"",41.518515
"Ac Facilisis Facilisis LLC","001i0000008rErLAAU","","","","","","","17070 Wright Plz, Omaha, NE 68130-2083","Omaha","Nebraska","","","17070 Wright Plz, Omaha, NE 68130-2083","Omaha","Nebraska","","","","Other","Healthcare","","","","","","","","","","","2013-12-15 00:00:00","","","",0,"",-96.182054,"",41.233258
"Ac Incorporated","001i0000008rFawAAE","","","","","","","1019 15th St, Cody, WY 82414-3721","Cody","Wyoming","","","1019 15th St, Cody, WY 82414-3721","Cody","Wyoming","","","","Other","Technology","","","","","","","","","","","2014-03-30 00:00:00","","","",0,"",-109.05862,"",44.526489
"Ac Mattis Institute","001i0000008rFVMAA2","","","","","","","31115 W Crossroads Ln, Eugene, OR 97408-9220","Eugene","Oregon","","","31115 W Crossroads Ln, Eugene, OR 97408-9220","Eugene","Oregon","","","","Other","Manufacturing","","","","","","","","","","","2015-03-22 00:00:00","","","",0,"",-123.125078,"",44.189012
"Ac Metus Corporation","001i0000008rEoQAAU","","","","","","","1250 Niagara St, Buffalo, NY 14213-1502","Buffalo","New York","","","1250 Niagara St, Buffalo, NY 14213-1502","Buffalo","New York","","","","Other","Insurance","","","","","","","","","","","2011-12-09 00:00:00","","","",0,"",-78.899571,"",42.918215
"Ac Mi Eleifend LLC","001i0000008rG15AAE","","","","","","","32 3rd St NE, Minot, ND 58703-3108","Minot","North Dakota","","","32 3rd St NE, Minot, ND 58703-3108","Minot","North Dakota","","","","Other","Telecommunications","","","","","","","","","","","2013-09-24 00:00:00","","","",0,"",-101.288237,"",48.237588
"Ac Turpis Egestas Limited","001i0000008rFtRAAU","","","","","","","157 2nd Ave, Twin Falls, ID 83301","Twin Falls","Idaho","","","157 2nd Ave, Twin Falls, ID 83301","Twin Falls","Idaho","","","","Other","Transportation","","","","","","","","","","","2011-02-28 00:00:00","","","",0,"",-114.472287,"",42.55571
"Accumsan Convallis PC","001i0000008rF08AAE","","","","","","","639 Girod St, Mandeville, LA 70448-5205","Mandeville","Louisiana","","","639 Girod St, Mandeville, LA 70448-5205","Mandeville","Louisiana","","","","Other","Chemicals","","","","","","","","","","","2013-12-24 00:00:00","","","",0,"",-90.063091,"",30.360469
"Accumsan Inc.","001i0000008rFI5AAM","","","","","","","200 Dousman St, Green Bay, WI 54303-2712","Green Bay","Wisconsin","","","200 Dousman St, Green Bay, WI 54303-2712","Green Bay","Wisconsin","","","","Other","Telecommunications","","","","","","","","","","","2013-08-10 00:00:00","","","",0,"",-88.0176,"",44.519606
"Acme, inc.","001i0000008rG80AAE","","","","","","","5041 Rainier Ave S, Seattle, WA 98118-1946","Seattle","Washington","","","5041 Rainier Ave S, Seattle, WA 98118-1946","Seattle","Washington","","","","Other","Technology","","","","","","","","","","","2014-12-14 00:00:00","","","",0,"",-122.28429,"",47.555989
"Adipiscing Company","001i0000008rF01AAE","","","","","","","317 N Main St, Elkhart, IN 46516-3034","Elkhart","Indiana","","","317 N Main St, Elkhart, IN 46516-3034","Elkhart","Indiana","","","","Other","Transportation","","","","","","","","","","","2013-02-27 00:00:00","","","",0,"",-85.975323,"",41.690008
"Adipiscing Corporation","001i0000008rCg2AAE","","","","","","","2101 Epcot Resorts Blvd, Lake Buena Vista, FL 32830-8442","Lake Buena Vista","Florida","","","2101 Epcot Resorts Blvd, Lake Buena Vista, FL 32830-8442","Lake Buena Vista","Florida","","","","Other","Finance","","","","","","","","","","","2012-08-26 00:00:00","","","",0,"",-81.555115,"",28.365942
"Adipiscing Elit PC","001i0000008rG9zAAE","","","","","","","625 St Helens Ave, Tacoma, WA 98402-2304","Tacoma","Washington","","","625 St Helens Ave, Tacoma, WA 98402-2304","Tacoma","Washington","","","","Other","Finance","","","","","","","","","","","2015-06-23 00:00:00","","","",0,"",-122.442472,"",47.257858
"Adipiscing Enim Mi Consulting","001i0000008rEG6AAM","","","","","","","2980 Cahill Main, Fitchburg, WI 53711-7146","Fitchburg","Wisconsin","","","2980 Cahill Main, Fitchburg, WI 53711-7146","Fitchburg","Wisconsin","","","","Other","Manufacturing","","","","","","","","","","","2013-07-22 00:00:00","","","",0,"",-89.423339,"",43.017804
"Adipiscing LLC","001i0000008rFayAAE","","","","","","","604 Broadway St, Rock Springs, WY 82901-6348","Rock Springs","Wyoming","","","604 Broadway St, Rock Springs, WY 82901-6348","Rock Springs","Wyoming","","","","Other","Telecommunications","","","","","","","","","","","2014-03-31 00:00:00","","","",0,"",-109.21782,"",41.586732
"Adipiscing Lobortis Risus Industries","001i0000008rFjjAAE","","","","","","","4301 W Wisconsin Ave Ste 189, Appleton, WI 54913-6530","Appleton","Wisconsin","","","4301 W Wisconsin Ave Ste 189, Appleton, WI 54913-6530","Appleton","Wisconsin","","","","Other","Telecommunications","","","","","","","","","","","2013-08-14 00:00:00","","","",0,"",-88.470068,"",44.269672
"Adipiscing Non Ltd","001i0000008rAWCAA2","","","","","","","509 1/2 Puyallup Ave, Tacoma, WA 98421-1318","Tacoma","Washington","","","509 1/2 Puyallup Ave, Tacoma, WA 98421-1318","Tacoma","Washington","","","","Other","Utilities","","","","","","","","","","","2015-06-30 00:00:00","","","",0,"",-122.427337,"",47.241118
"Aenean Eget Magna Foundation","001i0000008rFwmAAE","","","","","","","140 E Washington St PO Box 8111, Athens, GA 30601-2747","Athens","Georgia","","","140 E Washington St PO Box 8111, Athens, GA 30601-2747","Athens","Georgia","","","","Other","Chemicals","","","","","","","","","","","2012-07-17 00:00:00","","","",0,"",-83.376666,"",33.958886
"Aenean Eget Metus Inc.","001i0000008rFGSAA2","","","","","","","400 Union Square Dr, New Hope, PA 18938-1367","New Hope","Pennsylvania","","","400 Union Square Dr, New Hope, PA 18938-1367","New Hope","Pennsylvania","","","","Other","Communications","","","","","","","","","","","2012-03-20 00:00:00","","","",0,"",-74.954267,"",40.365523
"Aenean Institute","001i0000008rFkfAAE","","","","","","","1000 Carillon Blvd, Dayton, OH 45409","Dayton","Ohio","","","1000 Carillon Blvd, Dayton, OH 45409","Dayton","Ohio","","","","Other","Communications","","","","","","","","","","","2011-06-03 00:00:00","","","",0,"",-84.199902,"",39.729197
"Aenean Sed Pede Associates","001i0000008rG6eAAE","","","","","","","4547 N Rancho Dr Ste A, Las Vegas, NV 89130-3432","Las Vegas","Nevada","","","4547 N Rancho Dr Ste A, Las Vegas, NV 89130-3432","Las Vegas","Nevada","","","","Other","Finance","","","","","","","","","","","2014-06-18 00:00:00","","","",0,"",-115.235613,"",36.242741
"Aerosoft","001i0000008rF6yAAE","","","","","","","595 NE E St, Grants Pass, OR 97526-2356","Grants Pass","Oregon","","","595 NE E St, Grants Pass, OR 97526-2356","Grants Pass","Oregon","","","","Other","Technology","","","","","","","","","","","2015-01-04 00:00:00","","","",0,"",-123.317672,"",42.439023
"Aliquam Company","001i0000008rFepAAE","","","","","","","890 E Fort Union Blvd, Midvale, UT 84047-1745","Midvale","Utah","","","890 E Fort Union Blvd, Midvale, UT 84047-1745","Midvale","Utah","","","","Other","Telecommunications","","","","","","","","","","","2014-04-09 00:00:00","","","",0,"",-111.866499,"",40.621888
"Aliquam Enim Nec Limited","001i0000008rFUQAA2","","","","","","","201 E Vine St, Salisbury, MD 21804-5515","Salisbury","Maryland","","","201 E Vine St, Salisbury, MD 21804-5515","Salisbury","Maryland","","","","Other","Telecommunications","","","","","","","","","","","2012-03-31 00:00:00","","","",0,"",-75.596051,"",38.361847
"Aliquam Erat Volutpat LLP","001i0000008rFe9AAE","","","","","","","10 Sherman St, Pittsburgh, PA 15209","Pittsburgh","Pennsylvania","","","10 Sherman St, Pittsburgh, PA 15209","Pittsburgh","Pennsylvania","","","","Other","Technology","","","","","","","","","","","2011-06-11 00:00:00","","","",0,"",-79.971985,"",40.47886
"Aliquam Gravida Mauris Foundation","001i0000008rG10AAE","","","","","","","200 Mosbys Run, Roseland, VA 22967-8551","Roseland","Virginia","","","200 Mosbys Run, Roseland, VA 22967-8551","Roseland","Virginia","","","","Other","Healthcare","","","","","","","","","","","2012-06-09 00:00:00","","","",0,"",-78.918887,"",37.870497
"Aliquam Incorporated","001i0000008rFd2AAE","","","","","","","1220 W Nickerson St, Seattle, WA 98119-1325","Seattle","Washington","","","1220 W Nickerson St, Seattle, WA 98119-1325","Seattle","Washington","","","","Other","Healthcare","","","","","","","","","","","2015-04-03 00:00:00","","","",0,"",-122.373097,"",47.655811
"Aliquam LLP","001i0000008rETUAA2","","","","","","","245 108th Ave, Treasure Island, FL 33706-4703","Treasure Island","Florida","","","245 108th Ave, Treasure Island, FL 33706-4703","Treasure Island","Florida","","","","Other","Manufacturing","","","","","","","","","","","2012-09-24 00:00:00","","","",0,"",-82.766916,"",27.770782
"Aliquam PC","001i0000008rDkfAAE","","","","","","","5475 Main St, Lexington, MI 48450-9385","Lexington","Michigan","","","5475 Main St, Lexington, MI 48450-9385","Lexington","Michigan","","","","Other","Engineering","","","","","","","","","","","2013-03-31 00:00:00","","","",0,"",-82.530986,"",43.268746
"Aliquam Vulputate Ullamcorper Company","001i0000008rF3lAAE","","","","","","","8900 San Mateo Blvd NE Ste I, Albuquerque, NM 87113-2459","Albuquerque","New Mexico","","","8900 San Mateo Blvd NE Ste I, Albuquerque, NM 87113-2459","Albuquerque","New Mexico","","","","Other","Retail","","","","","","","","","","","2014-05-19 00:00:00","","","",0,"",-106.585965,"",35.186651
"Aliquam Vulputate Ullamcorper Ltd","001i0000008rDC5AAM","","","","","","","1130 Dublin Rd, Columbus, OH 43215-1039","Columbus","Ohio","","","1130 Dublin Rd, Columbus, OH 43215-1039","Columbus","Ohio","","","","Other","Finance","","","","","","","","","","","2012-12-03 00:00:00","","","",0,"",-83.048965,"",39.974298
"Aliquet Associates","001i0000008rEqYAAU","","","","","","","305 S Market Ave, Springfield, MO 65806-2023","Springfield","Missouri","","","305 S Market Ave, Springfield, MO 65806-2023","Springfield","Missouri","","","","Other","Finance","","","","","","","","","","","2013-11-27 00:00:00","","","",0,"",-93.295819,"",37.207767
"Aliquet Consulting","001i0000008rEwYAAU","","","","","","","1765 West Third Ave, Columbus, OH 43212-2769","Columbus","Ohio","","","1765 West Third Ave, Columbus, OH 43212-2769","Columbus","Ohio","","","","Other","Retail","","","","","","","","","","","2012-12-01 00:00:00","","","",0,"",-83.052928,"",39.985255
"Aliquet Libero Industries","001i0000008rGDdAAM","","","","","","","2001 Atwood Ave, Madison, WI 53704-5324","Madison","Wisconsin","","","2001 Atwood Ave, Madison, WI 53704-5324","Madison","Wisconsin","","","","Other","Retail","","","","","","","","","","","2013-07-01 00:00:00","","","",0,"",-89.355005,"",43.091775
"Aliquet Magna Ltd","001i0000008rELYAA2","","","","","","","345 Cochituate Rd, Framingham, MA 01701-4607","Framingham","Massachusetts","","","345 Cochituate Rd, Framingham, MA 01701-4607","Framingham","Massachusetts","","","","Other","Finance","","","","","","","","","","","2011-06-27 00:00:00","","","",0,"",-71.400266,"",42.302161
"Aliquet Metus Corp.","001i0000008rE8dAAE","","","","","","","30105 Agoura Rd, Agoura Hills, CA 91301-2003","Agoura Hills","California","","","30105 Agoura Rd, Agoura Hills, CA 91301-2003","Agoura Hills","California","","","","Other","Retail","","","","","","","","","","","2014-07-01 00:00:00","","","",0,"",-118.778637,"",34.145337
"Aliquet Molestie Consulting","001i0000008rFLyAAM","","","","","","","1162-B Wind River Rd, Carson, WA 98610-3298","Carson","Washington","","","1162-B Wind River Rd, Carson, WA 98610-3298","Carson","Washington","","","","Other","Utilities","","","","","","","","","","","2015-02-24 00:00:00","","","",0,"",-121.819919,"",45.728863
"Aliquet Sem LLP","001i0000008rFhhAAE","","","","","","","3655 Old Milton Pkwy, Alpharetta, GA 30005-4487","Alpharetta","Georgia","","","3655 Old Milton Pkwy, Alpharetta, GA 30005-4487","Alpharetta","Georgia","","","","Other","Technology","","","","","","","","","","","2012-06-29 00:00:00","","","",0,"",-84.252811,"",34.063786
"Amet Ante Associates","001i0000008rFJ0AAM","","","","","","","102 N Center St Ste 111, Bloomington, IL 61701-5065","Bloomington","Illinois","","","102 N Center St Ste 111, Bloomington, IL 61701-5065","Bloomington","Illinois","","","","Other","Chemicals","","","","","","","","","","","2013-10-22 00:00:00","","","",0,"",-88.994597,"",40.478778
"Amet Associates","001i0000008rFjGAAU","","","","","","","525 N Elizabeth St # 1& # 2, Milton Freewater, OR 97862-1332","Milton Freewater","Oregon","","","525 N Elizabeth St # 1& # 2, Milton Freewater, OR 97862-1332","Milton Freewater","Oregon","","","","Other","Shipping","","","","","","","","","","","2015-04-19 00:00:00","","","",0,"",-118.389196,"",45.941359
"Amet Company","001i0000008rESIAA2","","","","","","","508 Center St, Taft, CA 93268-3109","Taft","California","","","508 Center St, Taft, CA 93268-3109","Taft","California","","","","Other","Finance","","","","","","","","","","","2014-09-16 00:00:00","","","",0,"",-119.459344,"",35.141253
"Amet Consectetuer Ltd","001i0000008rCaWAAU","","","","","","","3321 Dill Smith Dr Bowman Center, Fredericksburg, VA 22408-7319","Fredericksburg","Virginia","","","3321 Dill Smith Dr Bowman Center, Fredericksburg, VA 22408-7319","Fredericksburg","Virginia","","","","Other","Finance","","","","","","","","","","","2012-06-01 00:00:00","","","",0,"",-77.46054,"",38.303184
"Amet Corp.","001i0000008rFggAAE","","","","","","","675 Merrimon Ave, Asheville, NC 28804-3541","Asheville","North Carolina","","","675 Merrimon Ave, Asheville, NC 28804-3541","Asheville","North Carolina","","","","Other","Manufacturing","","","","","","","","","","","2012-06-25 00:00:00","","","",0,"",-82.553603,"",35.622131
"Amet Faucibus Associates","001i0000008rDn2AAE","","","","","","","506 W Broadway St, Mt Pleasant, MI 48858-2441","Mt Pleasant","Michigan","","","506 W Broadway St, Mt Pleasant, MI 48858-2441","Mt Pleasant","Michigan","","","","Other","Technology","","","","","","","","","","","2013-04-08 00:00:00","","","",0,"",-84.781987,"",43.604878
"Amet Risus Donec PC","001i0000008rEtUAAU","","","","","","","11197 Brockway Rd Spc 1, Truckee, CA 96161-3352","Truckee","California","","","11197 Brockway Rd Spc 1, Truckee, CA 96161-3352","Truckee","California","","","","Other","Chemicals","","","","","","","","","","","2014-12-06 00:00:00","","","",0,"",-120.163368,"",39.321906
"Ante Blandit Company","001i0000008rER9AAM","","","","","","","5359 State Route 23, Windham, NY 12496-5906","Windham","New York","","","5359 State Route 23, Windham, NY 12496-5906","Windham","New York","","","","Other","Healthcare","","","","","","","","","","","2011-10-23 00:00:00","","","",0,"",-74.251103,"",42.30743
"Ante Blandit Viverra Consulting","001i0000008rEmoAAE","","","","","","","1901 Mendocino Ave, Santa Rosa, CA 95401-3630","Santa Rosa","California","","","1901 Mendocino Ave, Santa Rosa, CA 95401-3630","Santa Rosa","California","","","","Other","Technology","","","","","","","","","","","2014-11-15 00:00:00","","","",0,"",-122.717609,"",38.459135
"Ante Dictum Cursus Inc.","001i0000008rFNXAA2","","","","","","","11620 Sterling Ave Ste C, Riverside, CA 92503-4904","Riverside","California","","","11620 Sterling Ave Ste C, Riverside, CA 92503-4904","Riverside","California","","","","Other","Healthcare","","","","","","","","","","","2014-08-20 00:00:00","","","",0,"",-117.484431,"",33.895625
"Ante Iaculis Nec Incorporated","001i0000008rFR5AAM","","","","","","","125 S Main St Ste 400, Milford, MI 48381-1976","Milford","Michigan","","","125 S Main St Ste 400, Milford, MI 48381-1976","Milford","Michigan","","","","Other","Manufacturing","","","","","","","","","","","2013-03-31 00:00:00","","","",0,"",-83.60013,"",42.586485
"Ante Ipsum Corp.","001i0000008rGAGAA2","","","","","","","585 Oak Ave, Spruce Pine, NC 28777-2727","Spruce Pine","North Carolina","","","585 Oak Ave, Spruce Pine, NC 28777-2727","Spruce Pine","North Carolina","","","","Other","Engineering","","","","","","","","","","","2012-06-25 00:00:00","","","",0,"",-82.063568,"",35.91591
"Ante Ipsum Inc.","001i0000008rEhUAAU","","","","","","","300 W Main St, Louisville, KY 40202-2945","Louisville","Kentucky","","","300 W Main St, Louisville, KY 40202-2945","Louisville","Kentucky","","","","Other","Retail","","","","","","","","","","","2012-10-29 00:00:00","","","",0,"",-85.755085,"",38.256221
"Ante LLC","001i0000008rFVtAAM","","","","","","","28779 Hunter Creek Loop, Gold Beach, OR 97444-9626","Gold Beach","Oregon","","","28779 Hunter Creek Loop, Gold Beach, OR 97444-9626","Gold Beach","Oregon","","","","Other","Utilities","","","","","","","","","","","2015-03-23 00:00:00","","","",0,"",-124.415489,"",42.389128
"Ante Maecenas Ltd","001i0000008rG3bAAE","","","","","","","1800 4th St NW, Albuquerque, NM 87102","Albuquerque","New Mexico","","","1800 4th St NW, Albuquerque, NM 87102","Albuquerque","New Mexico","","","","Other","Hospitality","","","","","","","","","","","2011-03-30 00:00:00","","","",0,"",-106.647701,"",35.102217
"Ante Nunc LLP","001i0000008rEd9AAE","","","","","","","611 Escobar St, Martinez, CA 94553-1111","Martinez","California","","","611 Escobar St, Martinez, CA 94553-1111","Martinez","California","","","","Other","Manufacturing","","","","","","","","","","","2014-10-13 00:00:00","","","",0,"",-122.137792,"",38.0178
"Ante Vivamus Corp.","001i0000008rCX8AAM","","","","","","","121 Bridge St, Bellaire, MI 49615-1230","Bellaire","Michigan","","","121 Bridge St, Bellaire, MI 49615-1230","Bellaire","Michigan","","","","Other","Technology","","","","","","","","","","","2013-05-12 00:00:00","","","",0,"",-85.210421,"",44.976252
"Ante Vivamus Institute","001i0000008rEuLAAU","","","","","","","719 Virginia Ave #105, Indianapolis, IN 46203-1793","Indianapolis","Indiana","","","719 Virginia Ave #105, Indianapolis, IN 46203-1793","Indianapolis","Indiana","","","","Other","Technology","","","","","","","","","","","2013-01-26 00:00:00","","","",0,"",-86.145702,"",39.757158
"Arcu Ac Orci Incorporated","001i0000008rEZeAAM","","","","","","","333 California Dr, Burlingame, CA 94010-4114","Burlingame","California","","","333 California Dr, Burlingame, CA 94010-4114","Burlingame","California","","","","Other","Telecommunications","","","","","","","","","","","2014-09-28 00:00:00","","","",0,"",-122.346296,"",37.579947
"Arcu Aliquam Ultrices Corp.","001i0000008rG8fAAE","","","","","","","1012 Main St, Evanston, WY 82930-3443","Evanston","Wyoming","","","1012 Main St, Evanston, WY 82930-3443","Evanston","Wyoming","","","","Other","Manufacturing","","","","","","","","","","","2014-03-31 00:00:00","","","",0,"",-110.966146,"",41.26818
"Arcu Eu Institute","001i0000008rFdPAAU","","","","","","","1547 Mission Dr, Solvang, CA 93463-2607","Solvang","California","","","1547 Mission Dr, Solvang, CA 93463-2607","Solvang","California","","","","Other","Telecommunications","","","","","","","","","","","2014-09-23 00:00:00","","","",0,"",-120.143483,"",34.596259
"Arcu PC","001i0000008rCFaAAM","","","","","","","40827 Stone Rd, Big Bear Lake, CA 92315","Big Bear Lake","California","","","40827 Stone Rd, Big Bear Lake, CA 92315","Big Bear Lake","California","","","","Other","Finance","","","","","","","","","","","2011-01-22 00:00:00","","","",0,"",-116.911031,"",34.242542
"At Egestas LLP","001i0000008rCa9AAE","","","","","","","5509 Coastal Hwy, Ocean City, MD 21842-3144","Ocean City","Maryland","","","5509 Coastal Hwy, Ocean City, MD 21842-3144","Ocean City","Maryland","","","","Other","Other","","","","","","","","","","","2012-05-08 00:00:00","","","",0,"",-75.068663,"",38.38021
"At Incorporated","001i0000008rFxKAAU","","","","","","","454 Carolina Wy, Highlands, NC 28741","Highlands","North Carolina","","","454 Carolina Wy, Highlands, NC 28741","Highlands","North Carolina","","","","Other","Transportation","","","","","","","","","","","2011-03-29 00:00:00","","","",0,"",-83.195433,"",35.053896
"At Libero PC","001i0000008rG1JAAU","","","","","","","332 E Main St, Ottumwa, IA 52501-3041","Ottumwa","Iowa","","","332 E Main St, Ottumwa, IA 52501-3041","Ottumwa","Iowa","","","","Other","Telecommunications","","","","","","","","","","","2013-06-17 00:00:00","","","",0,"",-92.409518,"",41.015449
"At Pede Cras Corporation","001i0000008rE7XAAU","","","","","","","357 Price Pl, Madison, WI 53705-3208","Madison","Wisconsin","","","357 Price Pl, Madison, WI 53705-3208","Madison","Wisconsin","","","","Other","Utilities","","","","","","","","","","","2013-07-01 00:00:00","","","",0,"",-89.452327,"",43.071142
"At Velit Pellentesque Inc.","001i0000008rG7rAAE","","","","","","","865 S Rock Blvd, Sparks, NV 89431-5921","Sparks","Nevada","","","865 S Rock Blvd, Sparks, NV 89431-5921","Sparks","Nevada","","","","Other","Shipping","","","","","","","","","","","2014-06-21 00:00:00","","","",0,"",-119.767448,"",39.526657
"Auctor Corporation","001i0000008rEZSAA2","","","","","","","620 F St, Fresno, CA 93706-3413","Fresno","California","","","620 F St, Fresno, CA 93706-3413","Fresno","California","","","","Other","Manufacturing","","","","","","","","","","","2014-09-28 00:00:00","","","",0,"",-119.790665,"",36.727071
"Auctor Foundation","001i0000008rDhcAAE","","","","","","","103 N Phelps St, Decatur, MI 49045-1008","Decatur","Michigan","","","103 N Phelps St, Decatur, MI 49045-1008","Decatur","Michigan","","","","Other","Telecommunications","","","","","","","","","","","2013-04-14 00:00:00","","","",0,"",-85.974336,"",42.108739
"Auctor Quis Limited","001i0000008rFnEAAU","","","","","","","938 N 95th St, Seattle, WA 98103-3206","Seattle","Washington","","","938 N 95th St, Seattle, WA 98103-3206","Seattle","Washington","","","","Other","Utilities","","","","","","","","","","","2014-04-29 00:00:00","","","",0,"",-122.345602,"",47.698077
"Auctor Vitae Aliquet Company","001i0000008rFhnAAE","","","","","","","1140 S Michigan Ave, Howell, MI 48843-2669","Howell","Michigan","","","1140 S Michigan Ave, Howell, MI 48843-2669","Howell","Michigan","","","","Other","Manufacturing","","","","","","","","","","","2013-04-03 00:00:00","","","",0,"",-83.934119,"",42.594454
"Augue Id Associates","001i0000008rF0lAAE","","","","","","","23845 Highway 385, Hill City, SD 57745-6517","Hill City","South Dakota","","","23845 Highway 385, Hill City, SD 57745-6517","Hill City","South Dakota","","","","Other","Technology","","","","","","","","","","","2013-09-22 00:00:00","","","",0,"",-103.522307,"",43.948569
"Augue Ltd","001i0000008rFG9AAM","","","","","","","4057 Erie St, Willoughby, OH 44094-7804","Willoughby","Ohio","","","4057 Erie St, Willoughby, OH 44094-7804","Willoughby","Ohio","","","","Other","Finance","","","","","","","","","","","2012-12-26 00:00:00","","","",0,"",-81.405579,"",41.641482
"Big T Burgers and Fries","001i0000008rFL3AAM","","","","","","","61 Brookline Ave, Boston, MA 02215-3406","Boston","Massachusetts","","","61 Brookline Ave, Boston, MA 02215-3406","Boston","Massachusetts","","","","Other","Recreation","","","","","","","","","","","2011-06-30 00:00:00","","","",0,"",-71.099081,"",42.347128
"Blandit At PC","001i0000008rGAdAAM","","","","","","","28 Levesque Dr Ste 4 C/O Eliot Commons, Eliot, ME 03903-2073","Eliot","Maine","","","28 Levesque Dr Ste 4 C/O Eliot Commons, Eliot, ME 03903-2073","Eliot","Maine","","","","Other","Transportation","","","","","","","","","","","2011-07-31 00:00:00","","","",0,"",-70.789278,"",43.110758
"Blandit Company","001i0000008rCDcAAM","","","","","","","301 Roy Pitz Ave Ste 3, Chambersburg, PA 17201-1668","Chambersburg","Pennsylvania","","","301 Roy Pitz Ave Ste 3, Chambersburg, PA 17201-1668","Chambersburg","Pennsylvania","","","","Other","Retail","","","","","","","","","","","2011-12-03 00:00:00","","","",0,"",-77.656419,"",39.939343
"Blandit Nam LLC","001i0000008rG6mAAE","","","","","","","613 S 2nd St, Milwaukee, WI 53204-1616","Milwaukee","Wisconsin","","","613 S 2nd St, Milwaukee, WI 53204-1616","Milwaukee","Wisconsin","","","","Other","Technology","","","","","","","","","","","2013-06-19 00:00:00","","","",0,"",-87.913026,"",43.024897
"Bluth Company","001i0000008rEylAAE","","","","","","","7424 SW Beaverton Hillsdale Hwy, Portland, OR 97225-2149","Portland","Oregon","","","7424 SW Beaverton Hillsdale Hwy, Portland, OR 97225-2149","Portland","Oregon","","","","Other","Technology","","","","","","","","","","","2014-12-20 00:00:00","","","",0,"",-122.754152,"",45.485795
"Chasers","001i0000008rEvcAAE","","","","","","","44 N Main St, Warsaw, NY 14569-1326","Warsaw","New York","","","44 N Main St, Warsaw, NY 14569-1326","Warsaw","New York","","","","Other","Transportation","","","","","","","","","","","2011-12-05 00:00:00","","","",0,"",-78.132573,"",42.740905
"Colonial Movers","001i0000008rFh2AAE","","","","","","","2050 Hwy 4, Arnold, CA 95223","Arnold","California","","","2050 Hwy 4, Arnold, CA 95223","Arnold","California","","","","Other","Engineering","","","","","","","","","","","2011-01-17 00:00:00","","","",0,"",-120.361603,"",38.242386
"Commodo LLC","001i0000008rFDYAA2","","","","","","","21 2nd St, Athens, NY 12015-1327","Athens","New York","","","21 2nd St, Athens, NY 12015-1327","Athens","New York","","","","Other","Retail","","","","","","","","","","","2011-10-10 00:00:00","","","",0,"",-73.809683,"",42.260511
"Compuglobalhypermeganet","001i0000008rDPrAAM","","","","","","","2027 13th St, Boulder, CO 80302-5201","Boulder","Colorado","","","2027 13th St, Boulder, CO 80302-5201","Boulder","Colorado","","","","Other","Manufacturing","","","","","","","","","","","2014-01-26 00:00:00","","","",0,"",-105.278957,"",40.018715
"Congue Elit Sed PC","001i0000008rG17AAE","","","","","","","16 E Route 66, Flagstaff, AZ 86001-5792","Flagstaff","Arizona","","","16 E Route 66, Flagstaff, AZ 86001-5792","Flagstaff","Arizona","","","","Other","Engineering","","","","","","","","","","","2014-05-05 00:00:00","","","",0,"",-111.648398,"",35.197509
"Consectetuer Adipiscing Elit Consulting","001i0000008rGAQAA2","","","","","","","1458 University Ave, San Diego, CA 92103-3405","San Diego","California","","","1458 University Ave, San Diego, CA 92103-3405","San Diego","California","","","","Other","Telecommunications","","","","","","","","","","","2014-07-27 00:00:00","","","",0,"",-117.149911,"",32.749106
"Consectetuer Adipiscing Elit Corporation","001i0000008rFaaAAE","","","","","","","3558 Farnam St, Omaha, NE 68131-3304","Omaha","Nebraska","","","3558 Farnam St, Omaha, NE 68131-3304","Omaha","Nebraska","","","","Other","Recreation","","","","","","","","","","","2013-12-16 00:00:00","","","",0,"",-95.965892,"",41.257934
"Consectetuer Adipiscing LLC","001i0000008rEbLAAU","","","","","","","1000 Great Hwy, San Francisco, CA 94121-3268","San Francisco","California","","","1000 Great Hwy, San Francisco, CA 94121-3268","San Francisco","California","","","","Other","Technology","","","","","","","","","","","2014-10-05 00:00:00","","","",0,"",-122.510204,"",37.76946
"Consectetuer Euismod Incorporated","001i0000008rG0IAAU","","","","","","","505 W Jones St, Raleigh, NC 27603-1428","Raleigh","North Carolina","","","505 W Jones St, Raleigh, NC 27603-1428","Raleigh","North Carolina","","","","Other","Healthcare","","","","","","","","","","","2012-06-16 00:00:00","","","",0,"",-78.646386,"",35.782584
"Consectetuer Ipsum LLP","001i0000008rFb9AAE","","","","","","","7536 Fay Ave, La Jolla, CA 92037-4839","La Jolla","California","","","7536 Fay Ave, La Jolla, CA 92037-4839","La Jolla","California","","","","Other","Retail","","","","","","","","","","","2014-07-09 00:00:00","","","",0,"",-117.274361,"",32.840815
"Consectetuer Rhoncus Nullam Foundation","001i0000008rCi3AAE","","","","","","","2439 Atwood Ave, Madison, WI 53704-5604","Madison","Wisconsin","","","2439 Atwood Ave, Madison, WI 53704-5604","Madison","Wisconsin","","","","Other","Healthcare","","","","","","","","","","","2013-07-01 00:00:00","","","",0,"",-89.345654,"",43.093672
"Consequat Dolor PC","001i0000008rEhjAAE","","","","","","","1809 Larkspur Landing Cir, Larkspur, CA 94939-1801","Larkspur","California","","","1809 Larkspur Landing Cir, Larkspur, CA 94939-1801","Larkspur","California","","","","Other","Utilities","","","","","","","","","","","2014-10-28 00:00:00","","","",0,"",-122.509623,"",37.947537
"Consequat Dolor Vitae Inc.","001i0000008rEheAAE","","","","","","","7001 South Fwy, Fort Worth, TX 76134-4001","Fort Worth","Texas","","","7001 South Fwy, Fort Worth, TX 76134-4001","Fort Worth","Texas","","","","Other","Telecommunications","","","","","","","","","","","2013-12-29 00:00:00","","","",0,"",-97.319854,"",32.643323
"Consequat Dolor Vitae LLC","001i0000008rGCtAAM","","","","","","","1110 Westloop Pl, Manhattan, KS 66502-2838","Manhattan","Kansas","","","1110 Westloop Pl, Manhattan, KS 66502-2838","Manhattan","Kansas","","","","Other","Retail","","","","","","","","","","","2013-11-30 00:00:00","","","",0,"",-96.608193,"",39.191438
"Consequat Foundation","001i0000008rFvuAAE","","","","","","","7668 Wooster Pike, Cincinnati, OH 45227-3926","Cincinnati","Ohio","","","7668 Wooster Pike, Cincinnati, OH 45227-3926","Cincinnati","Ohio","","","","Other","Telecommunications","","","","","","","","","","","2012-12-29 00:00:00","","","",0,"",-84.353848,"",39.139438
"Consequat Lectus Sit Ltd","001i0000008rF1YAAU","","","","","","","1550 E Zion Rd, Fayetteville, AR 72703-5017","Fayetteville","Arkansas","","","1550 E Zion Rd, Fayetteville, AR 72703-5017","Fayetteville","Arkansas","","","","Other","Entertainment","","","","","","","","","","","2013-12-28 00:00:00","","","",0,"",-94.137486,"",36.129688
"Convallis Ante Corp.","001i0000008rG5vAAE","","","","","","","11 Benton Ave E, Albia, IA 52531-2032","Albia","Iowa","","","11 Benton Ave E, Albia, IA 52531-2032","Albia","Iowa","","","","Other","Healthcare","","","","","","","","","","","2013-06-17 00:00:00","","","",0,"",-92.807795,"",41.027131
"Convallis In Associates","001i0000008rG2CAAU","","","","","","","3000 Main Ave, Durango, CO 81301-4245","Durango","Colorado","","","3000 Main Ave, Durango, CO 81301-4245","Durango","Colorado","","","","Other","Finance","","","","","","","","","","","2014-03-01 00:00:00","","","",0,"",-107.871918,"",37.297682
"Convallis In Cursus LLP","001i0000008rFRfAAM","","","","","","","500 President Clinton Ave, Little Rock, AR 72201-1756","Little Rock","Arkansas","","","500 President Clinton Ave, Little Rock, AR 72201-1756","Little Rock","Arkansas","","","","Other","Manufacturing","","","","","","","","","","","2013-12-25 00:00:00","","","",0,"",-92.265047,"",34.747654
"Convallis Inc.","001i0000008rG6QAAU","","","","","","","8103 8th Ave S, Seattle, WA 98108-4399","Seattle","Washington","","","8103 8th Ave S, Seattle, WA 98108-4399","Seattle","Washington","","","","Other","Shipping","","","","","","","","","","","2015-06-16 00:00:00","","","",0,"",-122.323178,"",47.530389
"Convallis LLP","001i0000008rBdSAAU","","","","","","","2775 Lebanon Rd, Manheim, PA 17545-8711","Manheim","Pennsylvania","","","2775 Lebanon Rd, Manheim, PA 17545-8711","Manheim","Pennsylvania","","","","Other","Healthcare","","","","","","","","","","","2012-02-17 00:00:00","","","",0,"",-76.430401,"",40.227395
"Corellian Engineering Corporation","001i0000008rExnAAE","","","","","","","120 Walton St, Syracuse, NY 13202-1571","Syracuse","New York","","","120 Walton St, Syracuse, NY 13202-1571","Syracuse","New York","","","","Other","Other","","","","","","","","","","","2011-11-06 00:00:00","","","",0,"",-76.154607,"",43.048096
"Cras Convallis Convallis LLP","001i0000008rC3MAAU","","","","","","","6 Dexter Plz, Pearl River, NY 10965-2321","Pearl River","New York","","","6 Dexter Plz, Pearl River, NY 10965-2321","Pearl River","New York","","","","Other","Insurance","","","","","","","","","","","2011-10-09 00:00:00","","","",0,"",-74.022847,"",41.058405
"Cras Dolor Corp.","001i0000008rG5zAAE","","","","","","","101 N Coast Hwy Ste C140, Oceanside, CA 92054-3015","Oceanside","California","","","101 N Coast Hwy Ste C140, Oceanside, CA 92054-3015","Oceanside","California","","","","Other","Finance","","","","","","","","","","","2014-07-07 00:00:00","","","",0,"",-117.379385,"",33.195039
"Cras Dolor Foundation","001i0000008rFE3AAM","","","","","","","145 S Washington St, Constantine, MI 49042-1047","Constantine","Michigan","","","145 S Washington St, Constantine, MI 49042-1047","Constantine","Michigan","","","","Other","Finance","","","","","","","","","","","2013-04-13 00:00:00","","","",0,"",-85.668613,"",41.841706
"Cras Inc.","001i0000008rG5jAAE","","","","","","","9348 Deschutes Rd Ste H, Palo Cedro, CA 96073-8730","Palo Cedro","California","","","9348 Deschutes Rd Ste H, Palo Cedro, CA 96073-8730","Palo Cedro","California","","","","Other","Healthcare","","","","","","","","","","","2014-12-05 00:00:00","","","",0,"",-122.239703,"",40.560112
"Cras Industries","001i0000008rFv6AAE","","","","","","","1800 N University Dr, Coral Springs, FL 33071-6031","Coral Springs","Florida","","","1800 N University Dr, Coral Springs, FL 33071-6031","Coral Springs","Florida","","","","Other","Utilities","","","","","","","","","","","2012-09-12 00:00:00","","","",0,"",-80.253641,"",26.253524
"Cras Lorem Institute","001i0000008rG5uAAE","","","","","","","1209 E Main St, Cortez, CO 81321-2910","Cortez","Colorado","","","1209 E Main St, Cortez, CO 81321-2910","Cortez","Colorado","","","","Other","Retail","","","","","","","","","","","2014-03-16 00:00:00","","","",0,"",-108.570273,"",37.348438
"Cras Lorem Lorem Institute","001i0000008rErFAAU","","","","","","","215 E State St, Rockford, IL 61104-1010","Rockford","Illinois","","","215 E State St, Rockford, IL 61104-1010","Rockford","Illinois","","","","Other","Transportation","","","","","","","","","","","2013-10-14 00:00:00","","","",0,"",-89.090629,"",42.268958
"Cubilia Curae; Donec LLP","001i0000008rG04AAE","","","","","","","1108 NW 52nd St, Seattle, WA 98107-5129","Seattle","Washington","","","1108 NW 52nd St, Seattle, WA 98107-5129","Seattle","Washington","","","","Other","Retail","","","","","","","","","","","2015-06-01 00:00:00","","","",0,"",-122.371202,"",47.666653
"Cubilia Curae; Phasellus Associates","001i0000008rFVoAAM","","","","","","","622 Main St, Lafayette, IN 47901-1451","Lafayette","Indiana","","","622 Main St, Lafayette, IN 47901-1451","Lafayette","Indiana","","","","Other","Manufacturing","","","","","","","","","","","2013-03-24 00:00:00","","","",0,"",-86.889979,"",40.419364
"Curabitur Ut Consulting","001i0000008rBPHAA2","","","","","","","110 Canal St, Boston, MA 02114-1805","Boston","Massachusetts","","","110 Canal St, Boston, MA 02114-1805","Boston","Massachusetts","","","","Other","Technology","","","","","","","","","","","2011-06-30 00:00:00","","","",0,"",-71.060233,"",42.364324
"Curabitur Vel Lectus Incorporated","001i0000008rG6xAAE","","","","","","","500 North Commercial St, Manchester, NH 03101-1151","Manchester","New Hampshire","","","500 North Commercial St, Manchester, NH 03101-1151","Manchester","New Hampshire","","","","Other","Entertainment","","","","","","","","","","","2011-07-10 00:00:00","","","",0,"",-71.467764,"",42.994634
"Curae; Donec Industries","001i0000008rDbWAAU","","","","","","","131 Summer St, Stamford, CT 06901-2323","Stamford","Connecticut","","","131 Summer St, Stamford, CT 06901-2323","Stamford","Connecticut","","","","Other","Technology","","","","","","","","","","","2011-09-20 00:00:00","","","",0,"",-73.540447,"",41.054446
"Cursus A PC","001i0000008rFSaAAM","","","","","","","18 Shipyard Dr Ste 1K, Hingham, MA 02043-1670","Hingham","Massachusetts","","","18 Shipyard Dr Ste 1K, Hingham, MA 02043-1670","Hingham","Massachusetts","","","","Other","Not For Profit","","","","","","","","","","","2011-06-30 00:00:00","","","",0,"",-70.92284,"",42.249448
"Cursus Company","001i0000008rFQ2AAM","","","","","","","2920 River Rd Ste 6, Yakima, WA 98902-7332","Yakima","Washington","","","2920 River Rd Ste 6, Yakima, WA 98902-7332","Yakima","Washington","","","","Other","Manufacturing","","","","","","","","","","","2015-03-09 00:00:00","","","",0,"",-120.548681,"",46.617565
"Cursus Diam Consulting","001i0000008rFR2AAM","","","","","","","5510 Airport Way S, Seattle, WA 98108-2255","Seattle","Washington","","","5510 Airport Way S, Seattle, WA 98108-2255","Seattle","Washington","","","","Other","Finance","","","","","","","","","","","2015-03-13 00:00:00","","","",0,"",-122.320166,"",47.553029
"Cursus Et Eros PC","001i0000008rEumAAE","","","","","","","661 Howard St, San Francisco, CA 94105-3915","San Francisco","California","","","661 Howard St, San Francisco, CA 94105-3915","San Francisco","California","","","","Other","Healthcare","","","","","","","","","","","2014-09-28 00:00:00","","","",0,"",-122.399599,"",37.785482
"Cursus Nunc Mauris Ltd","001i0000008rG2sAAE","","","","","","","416 Main St, Rockland, ME 04841-3345","Rockland","Maine","","","416 Main St, Rockland, ME 04841-3345","Rockland","Maine","","","","Other","Insurance","","","","","","","","","","","2011-08-07 00:00:00","","","",0,"",-69.109495,"",44.104694
"Demo Company","001i0000008rEwEAAU","","","","","","","412 NW 5th Ave, Portland, OR 97209-3816","Portland","Oregon","","","412 NW 5th Ave, Portland, OR 97209-3816","Portland","Oregon","","","","Other","Utilities","","","","","","","","","","","2014-12-14 00:00:00","","","",0,"",-122.675212,"",45.526197
"Diam Industries","001i0000008rFZzAAM","","","","","","","424 S Gay St, Knoxville, TN 37902-1103","Knoxville","Tennessee","","","424 S Gay St, Knoxville, TN 37902-1103","Knoxville","Tennessee","","","","Other","Shipping","","","","","","","","","","","2012-10-29 00:00:00","","","",0,"",-83.918128,"",35.965693
"Diam Luctus Lobortis Consulting","001i0000008rE8IAAU","","","","","","","1000 Universal Studios Blvd, Universal City, CA 91608-1008","Universal City","California","","","1000 Universal Studios Blvd, Universal City, CA 91608-1008","Universal City","California","","","","Other","Manufacturing","","","","","","","","","","","2014-07-01 00:00:00","","","",0,"",-118.352791,"",34.136033
"Dibon Software Solution/Nanda Technology Group","001i0000008rF7iAAE","","","","","","","1320 Main St, Klamath Falls, OR 97601-5914","Klamath Falls","Oregon","","","1320 Main St, Klamath Falls, OR 97601-5914","Klamath Falls","Oregon","","","","Other","Technology","","","","","","","","","","","2015-01-06 00:00:00","","","",0,"",-121.77646,"",42.22799
"Dictum Augue Limited","001i0000008rGEgAAM","","","","","","","3901 1st Ave S, Seattle, WA 98134-2236","Seattle","Washington","","","3901 1st Ave S, Seattle, WA 98134-2236","Seattle","Washington","","","","Other","Utilities","","","","","","","","","","","2015-06-09 00:00:00","","","",0,"",-122.335633,"",47.567739
"Dictum Magna Ut Ltd","001i0000008rBcBAAU","","","","","","","5 W High St, Red Lion, PA 17356-1701","Red Lion","Pennsylvania","","","5 W High St, Red Lion, PA 17356-1701","Red Lion","Pennsylvania","","","","Other","Insurance","","","","","","","","","","","2012-01-28 00:00:00","","","",0,"",-76.609006,"",39.902482
"Dictum Placerat Augue LLP","001i0000008rFuSAAU","","","","","","","141 S Main St, Slippery Rock, PA 16057-1246","Slippery Rock","Pennsylvania","","","141 S Main St, Slippery Rock, PA 16057-1246","Slippery Rock","Pennsylvania","","","","Other","Insurance","","","","","","","","","","","2011-12-27 00:00:00","","","",0,"",-80.055655,"",41.063815
"Dictum Sapien Aenean Consulting","001i0000008rFX6AAM","","","","","","","830 W Bannock St, Boise, ID 83702-5857","Boise","Idaho","","","830 W Bannock St, Boise, ID 83702-5857","Boise","Idaho","","","","Other","Utilities","","","","","","","","","","","2014-03-31 00:00:00","","","",0,"",-116.202868,"",43.617789
"Dignissim Magna Ltd","001i0000008rFt6AAE","","","","","","","1208 Walnut Ave, Anniston, AL 36201-4526","Anniston","Alabama","","","1208 Walnut Ave, Anniston, AL 36201-4526","Anniston","Alabama","","","","Other","Finance","","","","","","","","","","","2012-10-24 00:00:00","","","",0,"",-85.833737,"",33.66028
"Dis Parturient Montes Company","001i0000008rG5hAAE","","","","","","","5840 Airport Way S Ste 121, Seattle, WA 98108-2751","Seattle","Washington","","","5840 Airport Way S Ste 121, Seattle, WA 98108-2751","Seattle","Washington","","","","Other","Technology","","","","","","","","","","","2015-06-15 00:00:00","","","",0,"",-122.317902,"",47.550592
"Dis Parturient Montes PC","001i0000008rGAoAAM","","","","","","","302 N Carson St, Carson City, NV 89701-4202","Carson City","Nevada","","","302 N Carson St, Carson City, NV 89701-4202","Carson City","Nevada","","","","Other","Healthcare","","","","","","","","","","","2014-06-28 00:00:00","","","",0,"",-119.767395,"",39.165382
"Dolor Associates","001i0000008rFQmAAM","","","","","","","328 W Front St, Berwick, PA 18603-4757","Berwick","Pennsylvania","","","328 W Front St, Berwick, PA 18603-4757","Berwick","Pennsylvania","","","","Other","Healthcare","","","","","","","","","","","2012-03-10 00:00:00","","","",0,"",-76.237875,"",41.051952
"Dolor Company","001i0000008rF9YAAU","","","","","","","880 Castleton Rd, Castle Rock, CO 80109-7512","Castle Rock","Colorado","","","880 Castleton Rd, Castle Rock, CO 80109-7512","Castle Rock","Colorado","","","","Other","Construction","","","","","","","","","","","2014-01-11 00:00:00","","","",0,"",-104.869848,"",39.409108
"Dolor Elit Pellentesque Institute","001i0000008rCvHAAU","","","","","","","610 Main St, Rapid City, SD 57701-2736","Rapid City","South Dakota","","","610 Main St, Rapid City, SD 57701-2736","Rapid City","South Dakota","","","","Other","Shipping","","","","","","","","","","","2013-09-22 00:00:00","","","",0,"",-103.227547,"",44.081389
"Dolor Inc.","001i0000008rEGCAA2","","","","","","","10450 Friars Rd Ste L, San Diego, CA 92120-2311","San Diego","California","","","10450 Friars Rd Ste L, San Diego, CA 92120-2311","San Diego","California","","","","Other","Finance","","","","","","","","","","","2014-08-05 00:00:00","","","",0,"",-117.098905,"",32.792342
"Dolor Nonummy Ac Inc.","001i0000008rEneAAE","","","","","","","725 4th St, Santa Rosa, CA 95404-4407","Santa Rosa","California","","","725 4th St, Santa Rosa, CA 95404-4407","Santa Rosa","California","","","","Other","Technology","","","","","","","","","","","2014-11-16 00:00:00","","","",0,"",-122.71165,"",38.441806
"Dolor Nonummy Corporation","001i0000008rGC7AAM","","","","","","","5001 S Washington St, Tacoma, WA 98409-2828","Tacoma","Washington","","","5001 S Washington St, Tacoma, WA 98409-2828","Tacoma","Washington","","","","Other","Utilities","","","","","","","","","","","2015-06-29 00:00:00","","","",0,"",-122.484654,"",47.211443
"Dolor Quam Elementum Consulting","001i0000008rFglAAE","","","","","","","1519 Queens Bay, Lake Havasu City, AZ 86403-6579","Lake Havasu City","Arizona","","","1519 Queens Bay, Lake Havasu City, AZ 86403-6579","Lake Havasu City","Arizona","","","","Other","Hospitality","","","","","","","","","","","2014-05-07 00:00:00","","","",0,"",-114.344617,"",34.47068
"Dolor Sit Amet Institute","001i0000008rFa4AAE","","","","","","","215 N 4th St, Columbus, OH 43215-2510","Columbus","Ohio","","","215 N 4th St, Columbus, OH 43215-2510","Columbus","Ohio","","","","Other","Technology","","","","","","","","","","","2012-12-11 00:00:00","","","",0,"",-82.997612,"",39.96727
"Dolor Sit Amet Ltd","001i0000008rF3VAAU","","","","","","","674 S Whitney Way, Madison, WI 53711-1035","Madison","Wisconsin","","","674 S Whitney Way, Madison, WI 53711-1035","Madison","Wisconsin","","","","Other","Manufacturing","","","","","","","","","","","2013-07-16 00:00:00","","","",0,"",-89.47393,"",43.050949
"Dolor Sit LLP","001i0000008rFM9AAM","","","","","","","118 N Pagosa Blvd, Pagosa Springs, CO 81147-8470","Pagosa Springs","Colorado","","","118 N Pagosa Blvd, Pagosa Springs, CO 81147-8470","Pagosa Springs","Colorado","","","","Other","Hospitality","","","","","","","","","","","2014-02-26 00:00:00","","","",0,"",-107.080319,"",37.255223
"Donec Dignissim Magna LLP","001i0000008rFdsAAE","","","","","","","1030 41st Ave, Santa Cruz, CA 95062-4447","Santa Cruz","California","","","1030 41st Ave, Santa Cruz, CA 95062-4447","Santa Cruz","California","","","","Other","Healthcare","","","","","","","","","","","2014-11-09 00:00:00","","","",0,"",-121.964622,"",36.966611
"Donec Inc.","001i0000008rFVCAA2","","","","","","","1035 Sterling Ave, Flossmoor, IL 60422-1252","Flossmoor","Illinois","","","1035 Sterling Ave, Flossmoor, IL 60422-1252","Flossmoor","Illinois","","","","Other","Healthcare","","","","","","","","","","","2013-09-29 00:00:00","","","",0,"",-87.678618,"",41.54333
"Donec Luctus Industries","001i0000008rEmFAAU","","","","","","","28 State St, Auburn, NY 13021-3625","Auburn","New York","","","28 State St, Auburn, NY 13021-3625","Auburn","New York","","","","Other","Healthcare","","","","","","","","","","","2011-11-13 00:00:00","","","",0,"",-76.568419,"",42.931798
"Donec Tempor Associates","001i0000008rDfJAAU","","","","","","","470 W Canfield St, Detroit, MI 48201-1220","Detroit","Michigan","","","470 W Canfield St, Detroit, MI 48201-1220","Detroit","Michigan","","","","Other","Manufacturing","","","","","","","","","","","2013-03-30 00:00:00","","","",0,"",-83.066021,"",42.351857
"Dot Technology","001i0000008rFSpAAM","","","","","","","2650 NE Division St, Bend, OR 97701-3569","Bend","Oregon","","","2650 NE Division St, Bend, OR 97701-3569","Bend","Oregon","","","","Other","Healthcare","","","","","","","","","","","2015-01-09 00:00:00","","","",0,"",-121.305232,"",44.075816
"Dui Cras Institute","001i0000008rDREAA2","","","","","","","1600 38th St Ste 100, Boulder, CO 80301-2610","Boulder","Colorado","","","1600 38th St Ste 100, Boulder, CO 80301-2610","Boulder","Colorado","","","","Other","Engineering","","","","","","","","","","","2014-01-29 00:00:00","","","",0,"",-105.245786,"",40.015064
"Dui Fusce Corp.","001i0000008rEm7AAE","","","","","","","418 S Florissant Rd, Saint Louis, MO 63135-2716","Saint Louis","Missouri","","","418 S Florissant Rd, Saint Louis, MO 63135-2716","Saint Louis","Missouri","","","","Other","Technology","","","","","","","","","","","2013-11-13 00:00:00","","","",0,"",-90.302326,"",38.738179
"Dui In Sodales Incorporated","001i0000008rCDIAA2","","","","","","","2276 E US Highway 22 and 3, Morrow, OH 45152-9414","Morrow","Ohio","","","2276 E US Highway 22 and 3, Morrow, OH 45152-9414","Morrow","Ohio","","","","Other","Finance","","","","","","","","","","","2012-12-29 00:00:00","","","",0,"",-84.17121,"",39.357356
"Dui In Sodales Industries","001i0000008rFJjAAM","","","","","","","1307 Bay St, Port Orchard, WA 98366-5105","Port Orchard","Washington","","","1307 Bay St, Port Orchard, WA 98366-5105","Port Orchard","Washington","","","","Other","Healthcare","","","","","","","","","","","2015-02-20 00:00:00","","","",0,"",-122.626185,"",47.542866
"Dui Incorporated","001i0000008rEphAAE","","","","","","","2004 Capitol Ave, Sacramento, CA 95811-4215","Sacramento","California","","","2004 Capitol Ave, Sacramento, CA 95811-4215","Sacramento","California","","","","Other","Retail","","","","","","","","","","","2014-11-24 00:00:00","","","",0,"",-121.481083,"",38.573115
"Dui Lectus Rutrum Foundation","001i0000008rCZqAAM","","","","","","","441 Catawba Ave, Put-In-Bay, OH 43456","Put-In-Bay","Ohio","","","441 Catawba Ave, Put-In-Bay, OH 43456","Put-In-Bay","Ohio","","","","Other","Insurance","","","","","","","","","","","2011-05-29 00:00:00","","","",0,"",-82.81965,"",41.652955
"Dui Quis Accumsan Associates","001i0000008rEaSAAU","","","","","","","620 Treat Ave, San Francisco, CA 94110-2016","San Francisco","California","","","620 Treat Ave, San Francisco, CA 94110-2016","San Francisco","California","","","","Other","Entertainment","","","","","","","","","","","2014-09-30 00:00:00","","","",0,"",-122.414226,"",37.760103
"Dui Quis LLP","001i0000008rETFAA2","","","","","","","1462 E. Grand Ave., Arroyo Grande, CA 93420-2448","Arroyo Grande","California","","","1462 E. Grand Ave., Arroyo Grande, CA 93420-2448","Arroyo Grande","California","","","","Other","Technology","","","","","","","","","","","2014-09-21 00:00:00","","","",0,"",-120.605843,"",35.121052
"Dui Suspendisse Institute","001i0000008rFsRAAU","","","","","","","4939 Pan American Fwy NE, Albuquerque, NM 87109-2230","Albuquerque","New Mexico","","","4939 Pan American Fwy NE, Albuquerque, NM 87109-2230","Albuquerque","New Mexico","","","","Other","Transportation","","","","","","","","","","","2014-05-14 00:00:00","","","",0,"",-106.600323,"",35.138895
"Duis A LLP","001i0000008rGDQAA2","","","","","","","624 T St NW, Washington, DC 20001-5119","Washington","District of Columbia","","","624 T St NW, Washington, DC 20001-5119","Washington","District of Columbia","","","","Other","Manufacturing","","","","","","","","","","","2012-04-29 00:00:00","","","",0,"",-77.021422,"",38.915425
"Duis Corporation","001i0000008rFvXAAU","","","","","","","345 S Elm St, Greensboro, NC 27401-2603","Greensboro","North Carolina","","","345 S Elm St, Greensboro, NC 27401-2603","Greensboro","North Carolina","","","","Other","Retail","","","","","","","","","","","2012-06-16 00:00:00","","","",0,"",-79.790336,"",36.068642
"Duis Cursus Diam Incorporated","001i0000008rEXSAA2","","","","","","","6 Center Sq, Hanover, PA 17331","Hanover","Pennsylvania","","","6 Center Sq, Hanover, PA 17331","Hanover","Pennsylvania","","","","Other","Healthcare","","","","","","","","","","","2011-06-05 00:00:00","","","",0,"",-76.983343,"",39.800728
"Duis Inc.","001i0000008rCD2AAM","","","","","","","8148 Main St, Garrettsville, OH 44231-1216","Garrettsville","Ohio","","","8148 Main St, Garrettsville, OH 44231-1216","Garrettsville","Ohio","","","","Other","Chemicals","","","","","","","","","","","2012-12-29 00:00:00","","","",0,"",-81.0971,"",41.284013
"Duis Volutpat Nunc LLP","001i0000008rEkJAAU","","","","","","","200 E Campbell Ave, Campbell, CA 95008-2010","Campbell","California","","","200 E Campbell Ave, Campbell, CA 95008-2010","Campbell","California","","","","Other","Technology","","","","","","","","","","","2014-11-07 00:00:00","","","",0,"",-121.946444,"",37.28679
"EGI Websoft","001i0000008rF8VAAU","","","","","","","495 NE Bellevue Dr, Bend, OR 97701-7412","Bend","Oregon","","","495 NE Bellevue Dr, Bend, OR 97701-7412","Bend","Oregon","","","","Other","Finance","","","","","","","","","","","2015-01-11 00:00:00","","","",0,"",-121.260596,"",44.055211
"Egestas Aliquam LLP","001i0000008rF97AAE","","","","","","","1710 North 2nd St, Coeur D Alene, ID 83814","Coeur D Alene","Idaho","","","1710 North 2nd St, Coeur D Alene, ID 83814","Coeur D Alene","Idaho","","","","Other","Retail","","","","","","","","","","","2011-03-07 00:00:00","","","",0,"",-116.782943,"",47.691579
"Egestas Duis Ac PC","001i0000008rFxTAAU","","","","","","","117 S Central Ave, Sidney, MT 59270","Sidney","Montana","","","117 S Central Ave, Sidney, MT 59270","Sidney","Montana","","","","Other","Technology","","","","","","","","","","","2011-03-28 00:00:00","","","",0,"",-104.157523,"",47.714745
"Egestas Limited","001i0000008rFlFAAU","","","","","","","650 W Cypress St, Kennett Square, PA 19348","Kennett Square","Pennsylvania","","","650 W Cypress St, Kennett Square, PA 19348","Kennett Square","Pennsylvania","","","","Other","Other","","","","","","","","","","","2011-06-12 00:00:00","","","",0,"",-75.724286,"",39.843873
"Egestas Rhoncus Proin Institute","001i0000008rEMqAAM","","","","","","","901 S Coast Dr Ste A, Costa Mesa, CA 92626-7790","Costa Mesa","California","","","901 S Coast Dr Ste A, Costa Mesa, CA 92626-7790","Costa Mesa","California","","","","Other","Technology","","","","","","","","","","","2014-08-30 00:00:00","","","",0,"",-117.894753,"",33.688871
"Egestas Sed Corp.","001i0000008rEkLAAU","","","","","","","130 N Santa Cruz Ave Ste G, Los Gatos, CA 95030-5949","Los Gatos","California","","","130 N Santa Cruz Ave Ste G, Los Gatos, CA 95030-5949","Los Gatos","California","","","","Other","Finance","","","","","","","","","","","2014-11-07 00:00:00","","","",0,"",-121.982234,"",37.225349
"Egestas Urna Associates","001i0000008rEgdAAE","","","","","","","222 Broad St, Chattanooga, TN 37402-1009","Chattanooga","Tennessee","","","222 Broad St, Chattanooga, TN 37402-1009","Chattanooga","Tennessee","","","","Other","Healthcare","","","","","","","","","","","2012-10-27 00:00:00","","","",0,"",-85.310348,"",35.054002
"Eget Institute","001i0000008rF2WAAU","","","","","","","56 S Union St, Rochester, NY 14607-1839","Rochester","New York","","","56 S Union St, Rochester, NY 14607-1839","Rochester","New York","","","","Other","Finance","","","","","","","","","","","2011-12-12 00:00:00","","","",0,"",-77.597552,"",43.153378
"Eget Ipsum Donec Inc.","001i0000008rG5TAAU","","","","","","","161 E Front St, Traverse City, MI 49684-5779","Traverse City","Michigan","","","161 E Front St, Traverse City, MI 49684-5779","Traverse City","Michigan","","","","Other","Manufacturing","","","","","","","","","","","2013-05-18 00:00:00","","","",0,"",-85.621241,"",44.764299
"Eget Laoreet Consulting","001i0000008rDEyAAM","","","","","","","58 Front St, Berea, OH 44017-1911","Berea","Ohio","","","58 Front St, Berea, OH 44017-1911","Berea","Ohio","","","","Other","Manufacturing","","","","","","","","","","","2012-12-17 00:00:00","","","",0,"",-81.852654,"",41.366911
"Eget Metus Eu Industries","001i0000008rFuzAAE","","","","","","","29115 Old Town Front St, Temecula, CA 92590-2812","Temecula","California","","","29115 Old Town Front St, Temecula, CA 92590-2812","Temecula","California","","","","Other","Utilities","","","","","","","","","","","2014-08-25 00:00:00","","","",0,"",-117.143148,"",33.482061
"Eget Metus LLP","001i0000008rEPzAAM","","","","","","","472 E Main St, Ventura, CA 93001-2627","Ventura","California","","","472 E Main St, Ventura, CA 93001-2627","Ventura","California","","","","Other","Technology","","","","","","","","","","","2014-09-09 00:00:00","","","",0,"",-119.29358,"",34.280575
"Eget Mollis Lectus Inc.","001i0000008rFP1AAM","","","","","","","127 E Aspen Ave, Fruita, CO 81521-2543","Fruita","Colorado","","","127 E Aspen Ave, Fruita, CO 81521-2543","Fruita","Colorado","","","","Other","Hospitality","","","","","","","","","","","2014-03-23 00:00:00","","","",0,"",-108.732678,"",39.159159
"Eget Tincidunt Dui Company","001i0000008rGDyAAM","","","","","","","1466 Garden of The Gods Rd Ste 184, Colorado Springs, CO 80907-9464","Colorado Springs","Colorado","","","1466 Garden of The Gods Rd Ste 184, Colorado Springs, CO 80907-9464","Colorado Springs","Colorado","","","","Other","Shipping","","","","","","","","","","","2014-02-15 00:00:00","","","",0,"",-104.854442,"",38.89742
"Eleifend Company","001i0000008rF19AAE","","","","","","","204 Valley St, Williamsport, PA 17702-6738","Williamsport","Pennsylvania","","","204 Valley St, Williamsport, PA 17702-6738","Williamsport","Pennsylvania","","","","Other","Engineering","","","","","","","","","","","2012-02-28 00:00:00","","","",0,"",-77.03692,"",41.222514
"Eleifend Egestas LLP","001i0000008rFM8AAM","","","","","","","413 Main St, Canon City, CO 81212-3733","Canon City","Colorado","","","413 Main St, Canon City, CO 81212-3733","Canon City","Colorado","","","","Other","Manufacturing","","","","","","","","","","","2014-02-26 00:00:00","","","",0,"",-105.241599,"",38.440458
"Elit Aliquam Ltd","001i0000008rDgFAAU","","","","","","","202 N Main St, Hailey, ID 83333-8413","Hailey","Idaho","","","202 N Main St, Hailey, ID 83333-8413","Hailey","Idaho","","","","Other","Technology","","","","","","","","","","","2014-03-31 00:00:00","","","",0,"",-114.316536,"",43.521175
"Elit Curabitur Inc.","001i0000008rEcDAAU","","","","","","","467 N High St, Columbus, OH 43215-2007","Columbus","Ohio","","","467 N High St, Columbus, OH 43215-2007","Columbus","Ohio","","","","Other","Technology","","","","","","","","","","","2012-12-09 00:00:00","","","",0,"",-83.002897,"",39.971915
"Elit Curabitur PC","001i0000008rFtzAAE","","","","","","","4435 Coastal Hwy, Ocean City, MD 21842-3243","Ocean City","Maryland","","","4435 Coastal Hwy, Ocean City, MD 21842-3243","Ocean City","Maryland","","","","Other","Entertainment","","","","","","","","","","","2012-05-15 00:00:00","","","",0,"",-75.070696,"",38.370734
"Elit Incorporated","001i0000008rEenAAE","","","","","","","34 W Main St, Fredonia, NY 14063-2136","Fredonia","New York","","","34 W Main St, Fredonia, NY 14063-2136","Fredonia","New York","","","","Other","Manufacturing","","","","","","","","","","","2011-12-02 00:00:00","","","",0,"",-79.332271,"",42.439181
"Elit Pellentesque A PC","001i0000008rEBmAAM","","","","","","","21 W Bay St, Savannah, GA 31401-1106","Savannah","Georgia","","","21 W Bay St, Savannah, GA 31401-1106","Savannah","Georgia","","","","Other","Telecommunications","","","","","","","","","","","2012-07-17 00:00:00","","","",0,"",-81.092081,"",32.080831
"Elit Pretium Et Consulting","001i0000008rFGmAAM","","","","","","","150 N Atlantic Ave, Cocoa Beach, FL 32931-2960","Cocoa Beach","Florida","","","150 N Atlantic Ave, Cocoa Beach, FL 32931-2960","Cocoa Beach","Florida","","","","Other","Healthcare","","","","","","","","","","","2012-09-01 00:00:00","","","",0,"",-80.609078,"",28.321354
"Elux India","001i0000008rG0AAAU","","","","","","","26 Front St, Bangor, ME 04401-6418","Bangor","Maine","","","26 Front St, Bangor, ME 04401-6418","Bangor","Maine","","","","Other","Other","","","","","","","","","","","2011-08-02 00:00:00","","","",0,"",-68.769833,"",44.796792
"Enim Commodo Foundation","001i0000008rFePAAU","","","","","","","91 S Royal Brougham Way, Seattle, WA 98134-1219","Seattle","Washington","","","91 S Royal Brougham Way, Seattle, WA 98134-1219","Seattle","Washington","","","","Other","Finance","","","","","","","","","","","2015-04-06 00:00:00","","","",0,"",-122.335183,"",47.5924
"Enim Consequat Purus LLP","001i0000008rF0LAAU","","","","","","","41 Center St, Rutland, VT 05701","Rutland","Vermont","","","41 Center St, Rutland, VT 05701","Rutland","Vermont","","","","Other","Technology","","","","","","","","","","","2011-06-19 00:00:00","","","",0,"",-72.97756,"",43.606701
"Enim Foundation","001i0000008rFW3AAM","","","","","","","3750 Hooker Rd Suite A, Roseburg, OR 97470-4501","Roseburg","Oregon","","","3750 Hooker Rd Suite A, Roseburg, OR 97470-4501","Roseburg","Oregon","","","","Other","Technology","","","","","","","","","","","2015-03-23 00:00:00","","","",0,"",-123.353161,"",43.254037
"Enim Industries","001i0000008rBUXAA2","","","","","","","417 River St, Troy, NY 12180-2822","Troy","New York","","","417 River St, Troy, NY 12180-2822","Troy","New York","","","","Other","Manufacturing","","","","","","","","","","","2011-10-11 00:00:00","","","",0,"",-73.688093,"",42.735884
"Enim Non Nisi Ltd","001i0000008rGEUAA2","","","","","","","404 S 3rd St, Mount Vernon, WA 98273-3824","Mount Vernon","Washington","","","404 S 3rd St, Mount Vernon, WA 98273-3824","Mount Vernon","Washington","","","","Other","Transportation","","","","","","","","","","","2015-02-17 00:00:00","","","",0,"",-122.335364,"",48.419283
"Enim PC","001i0000008rEVFAA2","","","","","","","97 Nassau Ave, Brooklyn, NY 11222","Brooklyn","New York","","","97 Nassau Ave, Brooklyn, NY 11222","Brooklyn","New York","","","","Other","Healthcare","","","","","","","","","","","2011-03-29 00:00:00","","","",0,"",-73.950365,"",40.724106
"Enim Suspendisse Ltd","001i0000008rENYAA2","","","","","","","3416 Adams Ave, San Diego, CA 92116-2428","San Diego","California","","","3416 Adams Ave, San Diego, CA 92116-2428","San Diego","California","","","","Other","Chemicals","","","","","","","","","","","2013-10-02 00:00:00","","","",0,"",-117.120301,"",32.763498
"Erat Etiam Incorporated","001i0000008rCLtAAM","","","","","","","2325 Endicott St, Saint Paul, MN 55114","Saint Paul","Minnesota","","","2325 Endicott St, Saint Paul, MN 55114","Saint Paul","Minnesota","","","","Other","Insurance","","","","","","","","","","","2011-03-11 00:00:00","","","",0,"",-93.192564,"",44.970161
"Erat Etiam Vestibulum Limited","001i0000008rFYNAA2","","","","","","","1235 Oakmead Pkwy, Sunnyvale, CA 94085-4040","Sunnyvale","California","","","1235 Oakmead Pkwy, Sunnyvale, CA 94085-4040","Sunnyvale","California","","","","Other","Entertainment","","","","","","","","","","","2014-03-16 00:00:00","","","",0,"",-121.992672,"",37.387643
"Erat LLC","001i0000008rFUcAAM","","","","","","","1055 Madera St, Eugene, OR 97402-2019","Eugene","Oregon","","","1055 Madera St, Eugene, OR 97402-2019","Eugene","Oregon","","","","Other","Manufacturing","","","","","","","","","","","2015-03-21 00:00:00","","","",0,"",-123.140739,"",44.073005
"Erat Semper Rutrum PC","001i0000008rGBhAAM","","","","","","","5135 South East Side Hwy, Elkton, VA 22827-3469","Elkton","Virginia","","","5135 South East Side Hwy, Elkton, VA 22827-3469","Elkton","Virginia","","","","Other","Healthcare","","","","","","","","","","","2012-05-29 00:00:00","","","",0,"",-78.676569,"",38.356888
"Erat Volutpat Corp.","001i0000008rEzdAAE","","","","","","","10082 San Pablo Ave, El Cerrito, CA 94530-3927","El Cerrito","California","","","10082 San Pablo Ave, El Cerrito, CA 94530-3927","El Cerrito","California","","","","Other","Telecommunications","","","","","","","","","","","2014-10-10 00:00:00","","","",0,"",-122.302939,"",37.902052
"Ericsson Power","001i0000008rF8yAAE","","","","","","","62970 18th St, Bend, OR 97701-9847","Bend","Oregon","","","62970 18th St, Bend, OR 97701-9847","Bend","Oregon","","","","Other","Construction","","","","","","","","","","","2015-01-12 00:00:00","","","",0,"",-121.280692,"",44.086384
"Eros Institute","001i0000008rG4cAAE","","","","","","","711 SW Ankeny St, Portland, OR 97205-3703","Portland","Oregon","","","711 SW Ankeny St, Portland, OR 97205-3703","Portland","Oregon","","","","Other","Manufacturing","","","","","","","","","","","2014-12-07 00:00:00","","","",0,"",-122.678146,"",45.522687
"Eros Proin Ultrices LLP","001i0000008rEiaAAE","","","","","","","50 E Washington St, Petaluma, CA 94952-3115","Petaluma","California","","","50 E Washington St, Petaluma, CA 94952-3115","Petaluma","California","","","","Other","Healthcare","","","","","","","","","","","2014-11-01 00:00:00","","","",0,"",-122.639391,"",38.236238
"Est Ac Facilisis Institute","001i0000008rG0uAAE","","","","","","","407 Aplets Wy, Cashmere, WA 98815","Cashmere","Washington","","","407 Aplets Wy, Cashmere, WA 98815","Cashmere","Washington","","","","Other","Insurance","","","","","","","","","","","2011-06-19 00:00:00","","","",0,"",-120.470492,"",47.524366
"Est Congue A Corp.","001i0000008rG0nAAE","","","","","","","820 Main St, Louisville, CO 80027-1865","Louisville","Colorado","","","820 Main St, Louisville, CO 80027-1865","Louisville","Colorado","","","","Other","Retail","","","","","","","","","","","2014-01-01 00:00:00","","","",0,"",-105.13192,"",39.978269
"Est Congue A LLP","001i0000008rEYBAA2","","","","","","","235 N Ashland Ave, Chicago, IL 60607-1401","Chicago","Illinois","","","235 N Ashland Ave, Chicago, IL 60607-1401","Chicago","Illinois","","","","Other","Telecommunications","","","","","","","","","","","2013-09-29 00:00:00","","","",0,"",-87.666875,"",41.885814
"Et Arcu LLC","001i0000008rFUuAAM","","","","","","","4358B Leary Way NW, Seattle, WA 98107-4554","Seattle","Washington","","","4358B Leary Way NW, Seattle, WA 98107-4554","Seattle","Washington","","","","Other","Other","","","","","","","","","","","2015-03-22 00:00:00","","","",0,"",-122.365436,"",47.660401
"Et Eros Proin Corporation","001i0000008rFMVAA2","","","","","","","610 Monroe St, La Porte, IN 46350-3322","La Porte","Indiana","","","610 Monroe St, La Porte, IN 46350-3322","La Porte","Indiana","","","","Other","Finance","","","","","","","","","","","2013-02-24 00:00:00","","","",0,"",-86.721056,"",41.611958
"Et Foundation","001i0000008rFd9AAE","","","","","","","381 Broadway, Saratoga Springs, NY 12866-3111","Saratoga Springs","New York","","","381 Broadway, Saratoga Springs, NY 12866-3111","Saratoga Springs","New York","","","","Other","Communications","","","","","","","","","","","2011-11-06 00:00:00","","","",0,"",-73.785769,"",43.080838
"Et Libero Proin PC","001i0000008rENLAA2","","","","","","","237 Ocean Ave, Laguna Beach, CA 92651-2106","Laguna Beach","California","","","237 Ocean Ave, Laguna Beach, CA 92651-2106","Laguna Beach","California","","","","Other","Technology","","","","","","","","","","","2014-08-31 00:00:00","","","",0,"",-117.783529,"",33.54281
"Et Malesuada Corporation","001i0000008rFobAAE","","","","","","","155 W Main St, Wardensville, WV 26851","Wardensville","West Virginia","","","155 W Main St, Wardensville, WV 26851","Wardensville","West Virginia","","","","Other","Insurance","","","","","","","","","","","2011-06-19 00:00:00","","","",0,"",-78.597468,"",39.075071
"Et Rutrum Incorporated","001i0000008rFQdAAM","","","","","","","5785 N Government Wy, Coeur D Alene, ID 83815-7329","Coeur D Alene","Idaho","","","5785 N Government Wy, Coeur D Alene, ID 83815-7329","Coeur D Alene","Idaho","","","","Other","Healthcare","","","","","","","","","","","2014-03-31 00:00:00","","","",0,"",-116.787076,"",47.724289
"Et Ultrices Foundation","001i0000008rEAxAAM","","","","","","","110 Wisconsin Dells Pkwy S, Wisconsin Dells, WI 53965-8304","Wisconsin Dells","Wisconsin","","","110 Wisconsin Dells Pkwy S, Wisconsin Dells, WI 53965-8304","Wisconsin Dells","Wisconsin","","","","Other","Manufacturing","","","","","","","","","","","2013-07-28 00:00:00","","","",0,"",-89.791734,"",43.588777
"Etiam Corporation","001i0000008rBS9AAM","","","","","","","967 Main St, Willimantic, CT 06226-2330","Willimantic","Connecticut","","","967 Main St, Willimantic, CT 06226-2330","Willimantic","Connecticut","","","","Other","Healthcare","","","","","","","","","","","2011-09-06 00:00:00","","","",0,"",-72.217162,"",41.713079
"Etiam Ligula Tortor Limited","001i0000008rAzsAAE","","","","","","","52288 Sunquist Rd, Milton Freewater, OR 97862-6856","Milton Freewater","Oregon","","","52288 Sunquist Rd, Milton Freewater, OR 97862-6856","Milton Freewater","Oregon","","","","Other","Utilities","","","","","","","","","","","2015-04-25 00:00:00","","","",0,"",-118.444365,"",45.987643
"Eu Elit Nulla Inc.","001i0000008rEimAAE","","","","","","","360 W Western Ave, Muskegon, MI 49440-1273","Muskegon","Michigan","","","360 W Western Ave, Muskegon, MI 49440-1273","Muskegon","Michigan","","","","Other","Technology","","","","","","","","","","","2013-05-01 00:00:00","","","",0,"",-86.252512,"",43.236055
"Eu LLP","001i0000008rFi5AAE","","","","","","","405 NE Olson Rd, Boardman, OR 97818-8100","Boardman","Oregon","","","405 NE Olson Rd, Boardman, OR 97818-8100","Boardman","Oregon","","","","Other","Retail","","","","","","","","","","","2015-04-17 00:00:00","","","",0,"",-119.685404,"",45.84253
"Eu Ligula Foundation","001i0000008rFIbAAM","","","","","","","104 N Lewis St, Monroe, WA 98272-1502","Monroe","Washington","","","104 N Lewis St, Monroe, WA 98272-1502","Monroe","Washington","","","","Other","Manufacturing","","","","","","","","","","","2015-02-15 00:00:00","","","",0,"",-121.970776,"",47.856331
"Eu Sem LLC","001i0000008rFvdAAE","","","","","","","1075 Country Ln Ste 100, Ishpeming, MI 49849-3402","Ishpeming","Michigan","","","1075 Country Ln Ste 100, Ishpeming, MI 49849-3402","Ishpeming","Michigan","","","","Other","Shipping","","","","","","","","","","","2013-05-20 00:00:00","","","",0,"",-87.680293,"",46.501686
"Eu Sem Pellentesque PC","001i0000008rFqnAAE","","","","","","","130 W Gurley St Ste A, Prescott, AZ 86301-3603","Prescott","Arizona","","","130 W Gurley St Ste A, Prescott, AZ 86301-3603","Prescott","Arizona","","","","Other","Technology","","","","","","","","","","","2014-05-05 00:00:00","","","",0,"",-112.46967,"",34.542198
"Euismod Ac Fermentum Ltd","001i0000008rG4CAAU","","","","","","","3378 White Mountain Hwy (Rt 16), North Conway, NH 03860-1518","North Conway","New Hampshire","","","3378 White Mountain Hwy (Rt 16), North Conway, NH 03860-1518","North Conway","New Hampshire","","","","Other","Transportation","","","","","","","","","","","2011-07-30 00:00:00","","","",0,"",-71.145436,"",43.967258
"Euismod Corporation","001i0000008rEdSAAU","","","","","","","444 Harrison St, Oakland, CA 94607-4118","Oakland","California","","","444 Harrison St, Oakland, CA 94607-4118","Oakland","California","","","","Other","Technology","","","","","","","","","","","2014-10-14 00:00:00","","","",0,"",-122.271254,"",37.796427
"Euismod Est Arcu Corporation","001i0000008rFXIAA2","","","","","","","7752 Highway 42, Tenmile, OR 97481-9755","Tenmile","Oregon","","","7752 Highway 42, Tenmile, OR 97481-9755","Tenmile","Oregon","","","","Other","Retail","","","","","","","","","","","2015-03-27 00:00:00","","","",0,"",-123.536629,"",43.105412
"Euismod Et Foundation","001i0000008rFXkAAM","","","","","","","545 Rossanley Dr Ste 106, Medford, OR 97501-1771","Medford","Oregon","","","545 Rossanley Dr Ste 106, Medford, OR 97501-1771","Medford","Oregon","","","","Other","Finance","","","","","","","","","","","2015-03-28 00:00:00","","","",0,"",-122.894624,"",42.34017
"Euismod In Dolor Corp.","001i0000008rFejAAE","","","","","","","2141 SW 1st St, Redmond, OR 97756-7131","Redmond","Oregon","","","2141 SW 1st St, Redmond, OR 97756-7131","Redmond","Oregon","","","","Other","Healthcare","","","","","","","","","","","2015-04-07 00:00:00","","","",0,"",-121.169394,"",44.256106
"Euismod LLC","001i0000008rFPCAA2","","","","","","","721 N Arizona Ave Ste 103, Gilbert, AZ 85233-3405","Gilbert","Arizona","","","721 N Arizona Ave Ste 103, Gilbert, AZ 85233-3405","Gilbert","Arizona","","","","Other","Manufacturing","","","","","","","","","","","2014-04-23 00:00:00","","","",0,"",-111.841114,"",33.363016
"Euismod Urna Incorporated","001i0000008rDJkAAM","","","","","","","167 Front St, Marietta, OH 45750-3125","Marietta","Ohio","","","167 Front St, Marietta, OH 45750-3125","Marietta","Ohio","","","","Other","Manufacturing","","","","","","","","","","","2013-01-07 00:00:00","","","",0,"",-81.453636,"",39.411856
"Facilisis Facilisis Associates","001i0000008rCDGAA2","","","","","","","21290 Center Ridge Rd, Rocky River, OH 44116-3204","Rocky River","Ohio","","","21290 Center Ridge Rd, Rocky River, OH 44116-3204","Rocky River","Ohio","","","","Other","Utilities","","","","","","","","","","","2012-12-29 00:00:00","","","",0,"",-81.856121,"",41.460948
"Facilisis LLC","001i0000008rErHAAU","","","","","","","636 Massachusetts St, Lawrence, KS 66044-2236","Lawrence","Kansas","","","636 Massachusetts St, Lawrence, KS 66044-2236","Lawrence","Kansas","","","","Other","Telecommunications","","","","","","","","","","","2013-11-30 00:00:00","","","",0,"",-95.235525,"",38.971748
"Facilisis Non LLP","001i0000008rFxgAAE","","","","","","","309 Court Ave Ste 100, Des Moines, IA 50309-2230","Des Moines","Iowa","","","309 Court Ave Ste 100, Des Moines, IA 50309-2230","Des Moines","Iowa","","","","Other","Manufacturing","","","","","","","","","","","2013-06-03 00:00:00","","","",0,"",-93.620881,"",41.585643
"Facilisis PC","001i0000008rG7CAAU","","","","","","","158 Cypress St, Abilene, TX 79601-5817","Abilene","Texas","","","158 Cypress St, Abilene, TX 79601-5817","Abilene","Texas","","","","Other","Other","","","","","","","","","","","2014-01-04 00:00:00","","","",0,"",-99.734664,"",32.45014
"Faucibus Orci Inc.","001i0000008rFyoAAE","","","","","","","2323 N Milwaukee Ave, Chicago, IL 60647-2924","Chicago","Illinois","","","2323 N Milwaukee Ave, Chicago, IL 60647-2924","Chicago","Illinois","","","","Other","Healthcare","","","","","","","","","","","2013-10-09 00:00:00","","","",0,"",-87.698026,"",41.923688
"Felis Associates","001i0000008rFmFAAU","","","","","","","18 E 21st St, Kearney, NE 68847-5402","Kearney","Nebraska","","","18 E 21st St, Kearney, NE 68847-5402","Kearney","Nebraska","","","","Other","Healthcare","","","","","","","","","","","2013-12-24 00:00:00","","","",0,"",-99.080882,"",40.696755
"Felis Company","001i0000008rEJSAA2","","","","","","","426 Saint Peter St, Saint Paul, MN 55102-1105","Saint Paul","Minnesota","","","426 Saint Peter St, Saint Paul, MN 55102-1105","Saint Paul","Minnesota","","","","Other","Other","","","","","","","","","","","2013-08-28 00:00:00","","","",0,"",-93.096815,"",44.946733
"Felis Donec Tempor Associates","001i0000008rEPbAAM","","","","","","","26200 US Highway 19 N, Clearwater, FL 33761-3580","Clearwater","Florida","","","26200 US Highway 19 N, Clearwater, FL 33761-3580","Clearwater","Florida","","","","Other","Education","","","","","","","","","","","2012-09-25 00:00:00","","","",0,"",-82.732098,"",28.009971
"Felis Ullamcorper Foundation","001i0000008rF9yAAE","","","","","","","1634 18th St, Denver, CO 80202-1212","Denver","Colorado","","","1634 18th St, Denver, CO 80202-1212","Denver","Colorado","","","","Other","Environmental","","","","","","","","","","","2014-01-18 00:00:00","","","",0,"",-104.998427,"",39.753394
"Fermentum Arcu Consulting","001i0000008rFZ6AAM","","","","","","","16110 Jones Rd, White City, OR 97503-8548","White City","Oregon","","","16110 Jones Rd, White City, OR 97503-8548","White City","Oregon","","","","Other","Chemicals","","","","","","","","","","","2015-03-30 00:00:00","","","",0,"",-122.903001,"",42.551907
"Fermentum Convallis Ligula Inc.","001i0000008rFeHAAU","","","","","","","846 E Main St, Montrose, CO 81401-3938","Montrose","Colorado","","","846 E Main St, Montrose, CO 81401-3938","Montrose","Colorado","","","","Other","Telecommunications","","","","","","","","","","","2014-03-18 00:00:00","","","",0,"",-107.871374,"",38.482718
"Fermentum Fermentum Arcu PC","001i0000008rFvzAAE","","","","","","","905 36th Pl SE Ste C, Rio Rancho, NM 87124-4850","Rio Rancho","New Mexico","","","905 36th Pl SE Ste C, Rio Rancho, NM 87124-4850","Rio Rancho","New Mexico","","","","Other","Technology","","","","","","","","","","","2014-05-21 00:00:00","","","",0,"",-106.664833,"",35.242497
"Fermentum Metus Consulting","001i0000008rE3QAAU","","","","","","","2011 S 1st St, Milwaukee, WI 53207-1101","Milwaukee","Wisconsin","","","2011 S 1st St, Milwaukee, WI 53207-1101","Milwaukee","Wisconsin","","","","Other","Technology","","","","","","","","","","","2013-06-22 00:00:00","","","",0,"",-87.9115,"",43.007708
"Fermentum PC","001i0000008rECaAAM","","","","","","","1157 Columbia St, San Diego, CA 92101-3511","San Diego","California","","","1157 Columbia St, San Diego, CA 92101-3511","San Diego","California","","","","Other","Technology","","","","","","","","","","","2014-07-22 00:00:00","","","",0,"",-117.167106,"",32.71745
"Feugiat Non Lobortis Industries","001i0000008rFX9AAM","","","","","","","846 Victorian Ave, Sparks, NV 89431-5275","Sparks","Nevada","","","846 Victorian Ave, Sparks, NV 89431-5275","Sparks","Nevada","","","","Other","Healthcare","","","","","","","","","","","2014-06-21 00:00:00","","","",0,"",-119.754079,"",39.535161
"Feugiat Placerat Velit Ltd","001i0000008rGBUAA2","","","","","","","3201 1st Ave S Ste 104, Seattle, WA 98134-1848","Seattle","Washington","","","3201 1st Ave S Ste 104, Seattle, WA 98134-1848","Seattle","Washington","","","","Other","Government","","","","","","","","","","","2015-06-28 00:00:00","","","",0,"",-122.334777,"",47.575296
"Feugiat Sed Nec Institute","001i0000008rEiAAAU","","","","","","","112 Canal St, Boston, MA 02114-1805","Boston","Massachusetts","","","112 Canal St, Boston, MA 02114-1805","Boston","Massachusetts","","","","Other","Insurance","","","","","","","","","","","2011-06-30 00:00:00","","","",0,"",-71.060438,"",42.364407
"Finch Lab","001i0000008rF9BAAU","","","","","","","546 NW 7th St, Redmond, OR 97756-1628","Redmond","Oregon","","","546 NW 7th St, Redmond, OR 97756-1628","Redmond","Oregon","","","","Other","Manufacturing","","","","","","","","","","","2015-01-13 00:00:00","","","",0,"",-121.1751,"",44.28081
"Finite Infotech","001i0000008rF9QAAU","","","","","","","721 Desperado Ct, Sisters, OR 97759-9514","Sisters","Oregon","","","721 Desperado Ct, Sisters, OR 97759-9514","Sisters","Oregon","","","","Other","Retail","","","","","","","","","","","2015-01-16 00:00:00","","","",0,"",-121.534888,"",44.285291
"Foo Bars","001i0000008rFgJAAU","","","","","","","725 Manitou Ave Ste 3, Manitou Springs, CO 80829","Manitou Springs","Colorado","","","725 Manitou Ave Ste 3, Manitou Springs, CO 80829","Manitou Springs","Colorado","","","","Other","Chemicals","","","","","","","","","","","2011-02-06 00:00:00","","","",0,"",-104.915668,"",38.857144
"Fringilla Industries","001i0000008rFm7AAE","","","","","","","140 Laurens St SW, Aiken, SC 29801-3848","Aiken","South Carolina","","","140 Laurens St SW, Aiken, SC 29801-3848","Aiken","South Carolina","","","","Other","Manufacturing","","","","","","","","","","","2012-06-29 00:00:00","","","",0,"",-81.722676,"",33.560276
"Fringilla Porttitor Vulputate Company","001i0000008rBnxAAE","","","","","","","2828 NE Gilsan St, Portland, OR 97232","Portland","Oregon","","","2828 NE Gilsan St, Portland, OR 97232","Portland","Oregon","","","","Other","Entertainment","","","","","","","","","","","2011-06-07 00:00:00","","","",0,"",-122.636424,"",45.526222
"Fusce Aliquam Enim Limited","001i0000008rCqiAAE","","","","","","","41 Center St, Rutland, VT 05701-4016","Rutland","Vermont","","","41 Center St, Rutland, VT 05701-4016","Rutland","Vermont","","","","Other","Insurance","","","","","","","","","","","2011-08-28 00:00:00","","","",0,"",-72.97756,"",43.606701
"Fusce Aliquet Company","001i0000008rDpLAAU","","","","","","","221 Garland St Ste A, Traverse City, MI 49684-2271","Traverse City","Michigan","","","221 Garland St Ste A, Traverse City, MI 49684-2271","Traverse City","Michigan","","","","Other","Telecommunications","","","","","","","","","","","2013-05-15 00:00:00","","","",0,"",-85.624934,"",44.765361
"Fusce Foundation","001i0000008rFyuAAE","","","","","","","615 S 1st Ave, Pocatello, ID 83201-6557","Pocatello","Idaho","","","615 S 1st Ave, Pocatello, ID 83201-6557","Pocatello","Idaho","","","","Other","Healthcare","","","","","","","","","","","2014-03-31 00:00:00","","","",0,"",-112.443284,"",42.859824
"Fusce Mollis Duis Inc.","001i0000008rG1wAAE","","","","","","","2030 S Cherokee St, RinDenver, CO 80223-3917","RinDenver","Colorado","","","2030 S Cherokee St, RinDenver, CO 80223-3917","RinDenver","Colorado","","","","Other","Technology","","","","","","","","","","","2014-01-28 00:00:00","","","",0,"",-104.990804,"",39.679748
"Gadgetron","001i0000008rFxXAAU","","","","","","","1 Main St, Brockport, NY 14420","Brockport","New York","","","1 Main St, Brockport, NY 14420","Brockport","New York","","","","Other","Construction","","","","","","","","","","","2011-04-26 00:00:00","","","",0,"",-77.937955,"",43.216377
"General Products","001i0000008rFL4AAM","","","","","","","21182 Salmon Run Mall Loop W, Watertown, NY 13601-2244","Watertown","New York","","","21182 Salmon Run Mall Loop W, Watertown, NY 13601-2244","Watertown","New York","","","","Other","Engineering","","","","","","","","","","","2011-11-14 00:00:00","","","",0,"",-75.953714,"",43.97665
"General Services Corporation","001i0000008rF20AAE","","","","","","","100 E 6th St, Medford, OR 97501-5902","Medford","Oregon","","","100 E 6th St, Medford, OR 97501-5902","Medford","Oregon","","","","Other","Transportation","","","","","","","","","","","2014-12-28 00:00:00","","","",0,"",-122.873642,"",42.326815
"Gizmonic Institute","001i0000008rFmTAAU","","","","","","","346 Main St, Springfield, OR 97477-5362","Springfield","Oregon","","","346 Main St, Springfield, OR 97477-5362","Springfield","Oregon","","","","Other","Finance","","","","","","","","","","","2014-12-28 00:00:00","","","",0,"",-123.020989,"",44.046382
"Global Phone Networks(GPN)","001i0000008rG6VAAU","","","","","","","110 N Magnolia Ave, El Cajon, CA 92020","El Cajon","California","","","110 N Magnolia Ave, El Cajon, CA 92020","El Cajon","California","","","","Other","Technology","","","","","","","","","","","2011-01-15 00:00:00","","","",0,"",-116.962457,"",32.79574
"Globex Corporation","001i0000008rC5vAAE","","","","","","","1 Kendall Sq Ste B1102, Cambridge, MA 02139-1592","Cambridge","Massachusetts","","","1 Kendall Sq Ste B1102, Cambridge, MA 02139-1592","Cambridge","Massachusetts","","","","Other","Healthcare","","","","","","","","","","","2011-06-30 00:00:00","","","",0,"",-71.09006,"",42.367815
"Globo-Chem","001i0000008rEL7AAM","","","","","","","63 W Market St # 65, Corning, NY 14830-2526","Corning","New York","","","63 W Market St # 65, Corning, NY 14830-2526","Corning","New York","","","","Other","Hospitality","","","","","","","","","","","2011-12-10 00:00:00","","","",0,"",-77.057106,"",42.144054
"Gravida Inc.","001i0000008rFmBAAU","","","","","","","827 W Morgan St, Raleigh, NC 27603-1613","Raleigh","North Carolina","","","827 W Morgan St, Raleigh, NC 27603-1613","Raleigh","North Carolina","","","","Other","Healthcare","","","","","","","","","","","2012-06-17 00:00:00","","","",0,"",-78.653498,"",35.779672
"Gravida Incorporated","001i0000008rFfeAAE","","","","","","","2200 Main St, Baker City, OR 97814-2657","Baker City","Oregon","","","2200 Main St, Baker City, OR 97814-2657","Baker City","Oregon","","","","Other","Entertainment","","","","","","","","","","","2015-04-11 00:00:00","","","",0,"",-117.829325,"",44.779217
"Gravida Nunc Consulting","001i0000008rGBLAA2","","","","","","","825 N 7th Street, Phoenix, AZ 85006-3793","Phoenix","Arizona","","","825 N 7th Street, Phoenix, AZ 85006-3793","Phoenix","Arizona","","","","Other","Retail","","","","","","","","","","","2014-04-20 00:00:00","","","",0,"",-112.064827,"",33.457334
"Gringotts","001i0000008rFQxAAM","","","","","","","832 NE Beech St, Portland, OR 97227","Portland","Oregon","","","832 NE Beech St, Portland, OR 97227","Portland","Oregon","","","","Other","Engineering","","","","","","","","","","","2011-05-28 00:00:00","","","",0,"",-122.675118,"",45.549459
"Hendrerit Donec Inc.","001i0000008rD44AAE","","","","","","","401 E Main St, Mahomet, IL 61853-7429","Mahomet","Illinois","","","401 E Main St, Mahomet, IL 61853-7429","Mahomet","Illinois","","","","Other","Utilities","","","","","","","","","","","2013-10-22 00:00:00","","","",0,"",-88.403993,"",40.194982
"Hymenaeos Company","001i0000008rDtkAAE","","","","","","","2552 S I 75 Business Loop, Grayling, MI 49738-2010","Grayling","Michigan","","","2552 S I 75 Business Loop, Grayling, MI 49738-2010","Grayling","Michigan","","","","Other","Entertainment","","","","","","","","","","","2013-05-20 00:00:00","","","",0,"",-84.714751,"",44.661404
"IWS Technology","001i0000008rFojAAE","","","","","","","101 Oakwood Loop, San Marcos, TX 78666","San Marcos","Texas","","","101 Oakwood Loop, San Marcos, TX 78666","San Marcos","Texas","","","","Other","Retail","","","","","","","","","","","2011-06-11 00:00:00","","","",0,"",-98.071675,"",29.930892
"Iaculis Aliquet Ltd","001i0000008rEooAAE","","","","","","","5027 State Route 414, Burdett, NY 14818-9816","Burdett","New York","","","5027 State Route 414, Burdett, NY 14818-9816","Burdett","New York","","","","Other","Insurance","","","","","","","","","","","2011-12-17 00:00:00","","","",0,"",-76.868962,"",42.477051
"Iaculis Ltd","001i0000008rFGuAAM","","","","","","","700 Trapp Hill Rd, Stowe, VT 05672-5074","Stowe","Vermont","","","700 Trapp Hill Rd, Stowe, VT 05672-5074","Stowe","Vermont","","","","Other","Hospitality","","","","","","","","","","","2011-08-28 00:00:00","","","",0,"",-72.744623,"",44.465574
"Id Erat Inc.","001i0000008rFqDAAU","","","","","","","278 S Main St, Yuma, AZ 85364-1425","Yuma","Arizona","","","278 S Main St, Yuma, AZ 85364-1425","Yuma","Arizona","","","","Other","Engineering","","","","","","","","","","","2014-05-05 00:00:00","","","",0,"",-114.617879,"",32.722981
"Id Foundation","001i0000008rDxMAAU","","","","","","","1174 SW Highway 99W, Dundee, OR 97115","Dundee","Oregon","","","1174 SW Highway 99W, Dundee, OR 97115","Dundee","Oregon","","","","Other","Finance","","","","","","","","","","","2011-06-05 00:00:00","","","",0,"",-123.01471,"",45.274215
"Imperdiet Industries","001i0000008rEGZAA2","","","","","","","4030 Fox Valley Center Dr, Aurora, IL 60504-4109","Aurora","Illinois","","","4030 Fox Valley Center Dr, Aurora, IL 60504-4109","Aurora","Illinois","","","","Other","Technology","","","","","","","","","","","2013-09-29 00:00:00","","","",0,"",-88.219254,"",41.75987
"Imperdiet PC","001i0000008rFnMAAU","","","","","","","249 N Redwood Hwy, Cave Junction, OR 97523-9023","Cave Junction","Oregon","","","249 N Redwood Hwy, Cave Junction, OR 97523-9023","Cave Junction","Oregon","","","","Other","Healthcare","","","","","","","","","","","2014-01-29 00:00:00","","","",0,"",-123.645411,"",42.170824
"In Faucibus Consulting","001i0000008rFZlAAM","","","","","","","3500 Emerson Ave, Parkersburg, WV 26104-1806","Parkersburg","West Virginia","","","3500 Emerson Ave, Parkersburg, WV 26104-1806","Parkersburg","West Virginia","","","","Other","Other","","","","","","","","","","","2012-06-10 00:00:00","","","",0,"",-81.532968,"",39.287467
"In Incorporated","001i0000008rEVdAAM","","","","","","","1250 Lincoln Ave, Calistoga, CA 94515-1741","Calistoga","California","","","1250 Lincoln Ave, Calistoga, CA 94515-1741","Calistoga","California","","","","Other","Utilities","","","","","","","","","","","2014-09-27 00:00:00","","","",0,"",-122.579758,"",38.576878
"In Ltd","001i0000008rDTTAA2","","","","","","","25 S Main St, Alpharetta, GA 30009-1965","Alpharetta","Georgia","","","25 S Main St, Alpharetta, GA 30009-1965","Alpharetta","Georgia","","","","Other","Finance","","","","","","","","","","","2012-07-02 00:00:00","","","",0,"",-84.294902,"",34.074984
"In Mi Pede Institute","001i0000008rFeOAAU","","","","","","","4301 Leary Way NW, Seattle, WA 98107-4538","Seattle","Washington","","","4301 Leary Way NW, Seattle, WA 98107-4538","Seattle","Washington","","","","Other","Technology","","","","","","","","","","","2015-04-06 00:00:00","","","",0,"",-122.365603,"",47.65922
"In Ornare Sagittis Company","001i0000008rEQ1AAM","","","","","","","501 State St, Santa Barbara, CA 93101-1601","Santa Barbara","California","","","501 State St, Santa Barbara, CA 93101-1601","Santa Barbara","California","","","","Other","Retail","","","","","","","","","","","2014-09-09 00:00:00","","","",0,"",-119.695857,"",34.416677
"In Ornare Sagittis PC","001i0000008rEnBAAU","","","","","","","1305 Cleveland Ave, Santa Rosa, CA 95401-4211","Santa Rosa","California","","","1305 Cleveland Ave, Santa Rosa, CA 95401-4211","Santa Rosa","California","","","","Other","Manufacturing","","","","","","","","","","","2014-11-16 00:00:00","","","",0,"",-122.726956,"",38.449159
"In Sodales Company","001i0000008rEK9AAM","","","","","","","105 E Jefferson Ave, Kirkwood, MO 63122-4025","Kirkwood","Missouri","","","105 E Jefferson Ave, Kirkwood, MO 63122-4025","Kirkwood","Missouri","","","","Other","Retail","","","","","","","","","","","2013-08-24 00:00:00","","","",0,"",-90.405675,"",38.582536
"Inceptos Hymenaeos Mauris Corporation","001i0000008rD2OAAU","","","","","","","112 Pleasant St, Brunswick, ME 04011-2207","Brunswick","Maine","","","112 Pleasant St, Brunswick, ME 04011-2207","Brunswick","Maine","","","","Other","Healthcare","","","","","","","","","","","2011-08-01 00:00:00","","","",0,"",-69.979896,"",43.912764
"Incom Corporation","001i0000008rF0vAAE","","","","","","","202 SW 1st St, Corvallis, OR 97333-4727","Corvallis","Oregon","","","202 SW 1st St, Corvallis, OR 97333-4727","Corvallis","Oregon","","","","Other","Technology","","","","","","","","","","","2014-12-26 00:00:00","","","",0,"",-123.259747,"",44.562675
"Initrode","001i0000008rFAIAA2","","","","","","","199 E 5th Ave, Eugene, OR 97401-8715","Eugene","Oregon","","","199 E 5th Ave, Eugene, OR 97401-8715","Eugene","Oregon","","","","Other","Hospitality","","","","","","","","","","","2014-12-28 00:00:00","","","",0,"",-123.090089,"",44.054597
"Integer Aliquam LLC","001i0000008rDHZAA2","","","","","","","245 E Main St, Fredericksburg, TX 78624-4114","Fredericksburg","Texas","","","245 E Main St, Fredericksburg, TX 78624-4114","Fredericksburg","Texas","","","","Other","Utilities","","","","","","","","","","","2013-12-29 00:00:00","","","",0,"",-98.869619,"",30.27257
"Integer Corp.","001i0000008rDvGAAU","","","","","","","408 Shelden Ave, Houghton, MI 49931-2138","Houghton","Michigan","","","408 Shelden Ave, Houghton, MI 49931-2138","Houghton","Michigan","","","","Other","Technology","","","","","","","","","","","2013-05-27 00:00:00","","","",0,"",-88.568762,"",47.122047
"Integer Eu Lacus Corp.","001i0000008rFa6AAE","","","","","","","81 Mill St, Gahanna, OH 43230-1717","Gahanna","Ohio","","","81 Mill St, Gahanna, OH 43230-1717","Gahanna","Ohio","","","","Other","Manufacturing","","","","","","","","","","","2012-12-16 00:00:00","","","",0,"",-82.880069,"",40.019942
"Integer Sem LLC","001i0000008rE1YAAU","","","","","","","2201 S Fort Apache Rd, Las Vegas, NV 89117-5704","Las Vegas","Nevada","","","2201 S Fort Apache Rd, Las Vegas, NV 89117-5704","Las Vegas","Nevada","","","","Other","Manufacturing","","","","","","","","","","","2014-06-17 00:00:00","","","",0,"",-115.298065,"",36.147496
"Integer Tincidunt Inc.","001i0000008rCwFAAU","","","","","","","413 Main St, Ferdinand, ID 83526","Ferdinand","Idaho","","","413 Main St, Ferdinand, ID 83526","Ferdinand","Idaho","","","","Other","Utilities","","","","","","","","","","","2011-02-28 00:00:00","","","",0,"",-116.388535,"",46.152419
"Integer Vitae Nibh Industries","001i0000008rGApAAM","","","","","","","210 E 3rd St Ste A, Long Beach, CA 90802-3197","Long Beach","California","","","210 E 3rd St Ste A, Long Beach, CA 90802-3197","Long Beach","California","","","","Other","Insurance","","","","","","","","","","","2014-06-28 00:00:00","","","",0,"",-118.190719,"",33.770328
"Interdum Consulting","001i0000008rBqxAAE","","","","","","","100 Washington St, Haverhill, MA 01832-5500","Haverhill","Massachusetts","","","100 Washington St, Haverhill, MA 01832-5500","Haverhill","Massachusetts","","","","Other","Insurance","","","","","","","","","","","2011-06-27 00:00:00","","","",0,"",-71.085238,"",42.772665
"Interdum Curabitur Dictum Inc.","001i0000008rCZ0AAM","","","","","","","41 N State St, Westerville, OH 43081","Westerville","Ohio","","","41 N State St, Westerville, OH 43081","Westerville","Ohio","","","","Other","Apparel","","","","","","","","","","","2011-05-22 00:00:00","","","",0,"",-82.932009,"",40.127006
"Interdum Feugiat LLC","001i0000008rFGvAAM","","","","","","","211 S East St, Crown Point, IN 46307-4058","Crown Point","Indiana","","","211 S East St, Crown Point, IN 46307-4058","Crown Point","Indiana","","","","Other","Manufacturing","","","","","","","","","","","2013-02-18 00:00:00","","","",0,"",-87.363439,"",41.415835
"Interdum Ligula Limited","001i0000008rFklAAE","","","","","","","3768 Chicago Dr, Hudsonville, MI 49426-1637","Hudsonville","Michigan","","","3768 Chicago Dr, Hudsonville, MI 49426-1637","Hudsonville","Michigan","","","","Other","Healthcare","","","","","","","","","","","2013-04-28 00:00:00","","","",0,"",-85.876286,"",42.861944
"Interdum Ltd","001i0000008rFcCAAU","","","","","","","2550 N Moose Wilson Rd, Wilson, WY 83014-9614","Wilson","Wyoming","","","2550 N Moose Wilson Rd, Wilson, WY 83014-9614","Wilson","Wyoming","","","","Other","Technology","","","","","","","","","","","2014-03-31 00:00:00","","","",0,"",-110.84109,"",43.517471
"Ipsum Cursus Vestibulum Company","001i0000008rC3LAAU","","","","","","","161 River Ave, Patchogue, NY 11772-3304","Patchogue","New York","","","161 River Ave, Patchogue, NY 11772-3304","Patchogue","New York","","","","Other","Other","","","","","","","","","","","2011-10-09 00:00:00","","","",0,"",-73.021595,"",40.759222
"Ipsum Dolor Sit Associates","001i0000008rF1bAAE","","","","","","","104 South Cherry Street, O Fallon, IL 62269-2046","O Fallon","Illinois","","","104 South Cherry Street, O Fallon, IL 62269-2046","O Fallon","Illinois","","","","Other","Technology","","","","","","","","","","","2013-10-29 00:00:00","","","",0,"",-89.91221,"",38.591426
"Ipsum Donec Company","001i0000008rFalAAE","","","","","","","1960 N 12th St, Grand Junction, CO 81501-2912","Grand Junction","Colorado","","","1960 N 12th St, Grand Junction, CO 81501-2912","Grand Junction","Colorado","","","","Other","Healthcare","","","","","","","","","","","2014-02-23 00:00:00","","","",0,"",-108.551924,"",39.085346
"Ipsum Donec Inc.","001i0000008rFz3AAE","","","","","","","1201 W Hadley Ave, Las Cruces, NM 88005-2422","Las Cruces","New Mexico","","","1201 W Hadley Ave, Las Cruces, NM 88005-2422","Las Cruces","New Mexico","","","","Other","Telecommunications","","","","","","","","","","","2014-05-31 00:00:00","","","",0,"",-106.793442,"",32.309659
"Ipsum Inc.","001i0000008rFkEAAU","","","","","","","4051 Chicago Dr SW, Grandville, MI 49418-1257","Grandville","Michigan","","","4051 Chicago Dr SW, Grandville, MI 49418-1257","Grandville","Michigan","","","","Other","Healthcare","","","","","","","","","","","2013-04-23 00:00:00","","","",0,"",-85.764763,"",42.909417
"Justo Eu Arcu Consulting","001i0000008rDEzAAM","","","","","","","126 Muskingum Ave Unit E, Zanesville, OH 43701-4921","Zanesville","Ohio","","","126 Muskingum Ave Unit E, Zanesville, OH 43701-4921","Zanesville","Ohio","","","","Other","Shipping","","","","","","","","","","","2012-12-17 00:00:00","","","",0,"",-82.00966,"",39.936374
"Justo Faucibus Incorporated","001i0000008rEaUAAU","","","","","","","1398 Haight St, San Francisco, CA 94117-2909","San Francisco","California","","","1398 Haight St, San Francisco, CA 94117-2909","San Francisco","California","","","","Other","Finance","","","","","","","","","","","2014-09-30 00:00:00","","","",0,"",-122.445174,"",37.770388
"Justo Foundation","001i0000008rFFbAAM","","","","","","","1021 Broad Ripple Ave, Indianapolis, IN 46220-2034","Indianapolis","Indiana","","","1021 Broad Ripple Ave, Indianapolis, IN 46220-2034","Indianapolis","Indiana","","","","Other","Telecommunications","","","","","","","","","","","2013-02-06 00:00:00","","","",0,"",-86.140748,"",39.869484
"KMA Power","001i0000008rFe5AAE","","","","","","","57100 Beaver Drive #4 Sunriver Village, Sunriver, OR 97707","Sunriver","Oregon","","","57100 Beaver Drive #4 Sunriver Village, Sunriver, OR 97707","Sunriver","Oregon","","","","Other","Telecommunications","","","","","","","","","","","2011-06-03 00:00:00","","","",0,"",-121.435768,"",43.874625
"Krustyco","001i0000008rF3WAAU","","","","","","","249 S 2nd St, Coos Bay, OR 97420-1642","Coos Bay","Oregon","","","249 S 2nd St, Coos Bay, OR 97420-1642","Coos Bay","Oregon","","","","Other","Manufacturing","","","","","","","","","","","2014-12-28 00:00:00","","","",0,"",-124.214648,"",43.366541
